{"type":"FeatureCollection","features":[{"type":"Feature","geometry":{"type":"Point","coordinates":[-73.995371,40.724608]},"properties":{"title":"OLPC \/ 20080131.10D.47797 \/ SML","marker-color":"#944120","marker-size":"small","marker-symbol":"","image":"http:\/\/\/farm3.staticflickr.com\/2134\/2233544239_2166cea463_q.jpg","url":"http:\/\/\/farm3.staticflickr.com\/2134\/2233544239_2166cea463.jpg"}},{"type":"Feature","geometry":{"type":"Point","coordinates":[-73.995371,40.724608]},"properties":{"title":"OLPC \/ 20080131.10D.47794 \/ SML","marker-color":"#944120","marker-size":"small","marker-symbol":"","image":"http:\/\/\/farm3.staticflickr.com\/2219\/2233543797_050ff23d39_q.jpg","url":"http:\/\/\/farm3.staticflickr.com\/2219\/2233543797_050ff23d39.jpg"}},{"type":"Feature","geometry":{"type":"Point","coordinates":[-73.995371,40.724608]},"properties":{"title":"OLPC \/ 20080131.10D.47810 \/ SML","marker-color":"#944120","marker-size":"small","marker-symbol":"","image":"http:\/\/\/farm3.staticflickr.com\/2090\/2233558285_9bc942f923_q.jpg","url":"http:\/\/\/farm3.staticflickr.com\/2090\/2233558285_9bc942f923.jpg"}},{"type":"Feature","geometry":{"type":"Point","coordinates":[-73.995371,40.724608]},"properties":{"title":"OLPC \/ 20080131.10D.47799 \/ SML","marker-color":"#944120","marker-size":"small","marker-symbol":"","image":"http:\/\/\/farm3.staticflickr.com\/2128\/2233556271_149f399b1a_q.jpg","url":"http:\/\/\/farm3.staticflickr.com\/2128\/2233556271_149f399b1a.jpg"}},{"type":"Feature","geometry":{"type":"Point","coordinates":[-73.995371,40.724608]},"properties":{"title":"OLPC \/ 20080131.10D.47784 \/ SML","marker-color":"#944120","marker-size":"small","marker-symbol":"","image":"http:\/\/\/farm3.staticflickr.com\/2165\/2233543077_a385eb160b_q.jpg","url":"http:\/\/\/farm3.staticflickr.com\/2165\/2233543077_a385eb160b.jpg"}},{"type":"Feature","geometry":{"type":"Point","coordinates":[-74.000011,40.727031]},"properties":{"title":"2010-05-29 - 100L1772","marker-color":"#944120","marker-size":"small","marker-symbol":"","image":"http:\/\/\/farm5.staticflickr.com\/4138\/4871013107_0bb43ca6d1_q.jpg","url":"http:\/\/\/farm5.staticflickr.com\/4138\/4871013107_0bb43ca6d1.jpg"}},{"type":"Feature","geometry":{"type":"Point","coordinates":[-73.990259,40.736299]},"properties":{"title":"Union Square Geek - Rubber Glove","marker-color":"#944120","marker-size":"small","marker-symbol":"","image":"http:\/\/\/farm1.staticflickr.com\/16\/21716137_13aa8af5a1_q.jpg","url":"http:\/\/\/farm1.staticflickr.com\/16\/21716137_13aa8af5a1.jpg"}},{"type":"Feature","geometry":{"type":"Point","coordinates":[-73.996449,40.720262]},"properties":{"title":"Good game!","marker-color":"#944120","marker-size":"small","marker-symbol":"","image":"http:\/\/\/farm8.staticflickr.com\/7050\/6796777326_1421ce24d5_q.jpg","url":"http:\/\/\/farm8.staticflickr.com\/7050\/6796777326_1421ce24d5.jpg"}},{"type":"Feature","geometry":{"type":"Point","coordinates":[-74.005665,40.740526]},"properties":{"title":"Pastis","marker-color":"#944120","marker-size":"small","marker-symbol":"","image":"http:\/\/\/farm1.staticflickr.com\/48\/178016168_236f6d618f_q.jpg","url":"http:\/\/\/farm1.staticflickr.com\/48\/178016168_236f6d618f.jpg"}},{"type":"Feature","geometry":{"type":"Point","coordinates":[-74.006996,40.741446]},"properties":{"title":"MOTHER, 2000.","marker-color":"#944120","marker-size":"small","marker-symbol":"","image":"http:\/\/\/farm4.staticflickr.com\/3106\/2759491144_ce281b3a10_q.jpg","url":"http:\/\/\/farm4.staticflickr.com\/3106\/2759491144_ce281b3a10.jpg"}},{"type":"Feature","geometry":{"type":"Point","coordinates":[-74.006996,40.741446]},"properties":{"title":"MOTHER, Washington Street entrance, 2000.","marker-color":"#944120","marker-size":"small","marker-symbol":"","image":"http:\/\/\/farm4.staticflickr.com\/3082\/2759491328_85a146c51f_q.jpg","url":"http:\/\/\/farm4.staticflickr.com\/3082\/2759491328_85a146c51f.jpg"}},{"type":"Feature","geometry":{"type":"Point","coordinates":[-74.008181,40.742714]},"properties":{"title":"#howyousee at the Geek Street Fair","marker-color":"#944120","marker-size":"small","marker-symbol":"","image":"http:\/\/\/farm8.staticflickr.com\/7413\/9407120067_b7e0e322d4_q.jpg","url":"http:\/\/\/farm8.staticflickr.com\/7413\/9407120067_b7e0e322d4.jpg"}},{"type":"Feature","geometry":{"type":"Point","coordinates":[-74.008181,40.742714]},"properties":{"title":"This is your brain on drugs. Geek Street Fair hosted by Google complete. Shout out to google for no bathrooms. And @zoodzilla and @ptterb for being awesome!","marker-color":"#944120","marker-size":"small","marker-symbol":"","image":"http:\/\/\/farm4.staticflickr.com\/3824\/9409443059_b7d55eb017_q.jpg","url":"http:\/\/\/farm4.staticflickr.com\/3824\/9409443059_b7d55eb017.jpg"}},{"type":"Feature","geometry":{"type":"Point","coordinates":[-73.991225,40.753981]},"properties":{"title":"Young Fella. Can you guess what card it is?","marker-color":"#944120","marker-size":"small","marker-symbol":"","image":"http:\/\/\/farm4.staticflickr.com\/3495\/3268062063_bec8c59d9c_q.jpg","url":"http:\/\/\/farm4.staticflickr.com\/3495\/3268062063_bec8c59d9c.jpg"}},{"type":"Feature","geometry":{"type":"Point","coordinates":[-73.991225,40.753981]},"properties":{"title":"1UP & Fans","marker-color":"#944120","marker-size":"small","marker-symbol":"","image":"http:\/\/\/farm4.staticflickr.com\/3381\/3272329603_0d6c7368f1_q.jpg","url":"http:\/\/\/farm4.staticflickr.com\/3381\/3272329603_0d6c7368f1.jpg"}},{"type":"Feature","geometry":{"type":"Point","coordinates":[-73.983204,40.753299]},"properties":{"title":"Lawn closed","marker-color":"#944120","marker-size":"small","marker-symbol":"","image":"http:\/\/\/farm7.staticflickr.com\/6215\/6849002430_02fb0ba197_q.jpg","url":"http:\/\/\/farm7.staticflickr.com\/6215\/6849002430_02fb0ba197.jpg"}},{"type":"Feature","geometry":{"type":"Point","coordinates":[-74.007728,40.751519]},"properties":{"title":"Toys For Tots: It hurts to let go, but it warms the heart, too.","marker-color":"#944120","marker-size":"small","marker-symbol":"","image":"http:\/\/\/farm8.staticflickr.com\/7146\/6527635035_641975d470_q.jpg","url":"http:\/\/\/farm8.staticflickr.com\/7146\/6527635035_641975d470.jpg"}},{"type":"Feature","geometry":{"type":"Point","coordinates":[-74.016394,40.716574]},"properties":{"title":"SAU_1857","marker-color":"#944120","marker-size":"small","marker-symbol":"","image":"http:\/\/\/farm7.staticflickr.com\/6148\/5916603943_936f586a51_q.jpg","url":"http:\/\/\/farm7.staticflickr.com\/6148\/5916603943_936f586a51.jpg"}},{"type":"Feature","geometry":{"type":"Point","coordinates":[-74.01066,40.709214]},"properties":{"title":"2011-11-26 - 081-082 - Panorama","marker-color":"#944120","marker-size":"small","marker-symbol":"","image":"http:\/\/\/farm8.staticflickr.com\/7033\/6620952433_493c0d27fa_q.jpg","url":"http:\/\/\/farm8.staticflickr.com\/7033\/6620952433_493c0d27fa.jpg"}},{"type":"Feature","geometry":{"type":"Point","coordinates":[-73.98661,40.703891]},"properties":{"title":"defend dissertations","marker-color":"#944120","marker-size":"small","marker-symbol":"","image":"http:\/\/\/farm4.staticflickr.com\/3137\/3522967551_bbce56c067_q.jpg","url":"http:\/\/\/farm4.staticflickr.com\/3137\/3522967551_bbce56c067.jpg"}},{"type":"Feature","geometry":{"type":"Point","coordinates":[-73.986386,40.756376]},"properties":{"title":"Microsoft Times Square Store","marker-color":"#944120","marker-size":"small","marker-symbol":"","image":"http:\/\/\/farm9.staticflickr.com\/8053\/8126292822_21974262f6_q.jpg","url":"http:\/\/\/farm9.staticflickr.com\/8053\/8126292822_21974262f6.jpg"}},{"type":"Feature","geometry":{"type":"Point","coordinates":[-74.001288,40.756847]},"properties":{"title":"Spider-man by Greg Horn","marker-color":"#944120","marker-size":"small","marker-symbol":"","image":"http:\/\/\/farm7.staticflickr.com\/6033\/6245905012_a4ff780cd9_q.jpg","url":"http:\/\/\/farm7.staticflickr.com\/6033\/6245905012_a4ff780cd9.jpg"}},{"type":"Feature","geometry":{"type":"Point","coordinates":[-74.001215,40.757327]},"properties":{"title":"Hubby getting #steampunk #hat #clockwork #gears #geek #nycc #art #goth","marker-color":"#944120","marker-size":"small","marker-symbol":"","image":"http:\/\/\/farm9.staticflickr.com\/8194\/8082774573_652f5f1351_q.jpg","url":"http:\/\/\/farm9.staticflickr.com\/8194\/8082774573_652f5f1351.jpg"}},{"type":"Feature","geometry":{"type":"Point","coordinates":[-74.002318,40.757083]},"properties":{"title":"Ghostbusters","marker-color":"#944120","marker-size":"small","marker-symbol":"","image":"http:\/\/\/farm4.staticflickr.com\/3158\/2429379819_5510766622_q.jpg","url":"http:\/\/\/farm4.staticflickr.com\/3158\/2429379819_5510766622.jpg"}},{"type":"Feature","geometry":{"type":"Point","coordinates":[-74.002318,40.757083]},"properties":{"title":"MOAR SLAVE LEIAS!","marker-color":"#944120","marker-size":"small","marker-symbol":"","image":"http:\/\/\/farm3.staticflickr.com\/2184\/2430313336_92048dc23f_q.jpg","url":"http:\/\/\/farm3.staticflickr.com\/2184\/2430313336_92048dc23f.jpg"}},{"type":"Feature","geometry":{"type":"Point","coordinates":[-74.002318,40.757083]},"properties":{"title":"How much do you figure they're worth?","marker-color":"#944120","marker-size":"small","marker-symbol":"","image":"http:\/\/\/farm4.staticflickr.com\/3153\/2450807854_e49b414f2d_q.jpg","url":"http:\/\/\/farm4.staticflickr.com\/3153\/2450807854_e49b414f2d.jpg"}},{"type":"Feature","geometry":{"type":"Point","coordinates":[-74.002318,40.757083]},"properties":{"title":"Heavy chains","marker-color":"#944120","marker-size":"small","marker-symbol":"","image":"http:\/\/\/farm3.staticflickr.com\/2333\/2429453873_a5fa92af44_q.jpg","url":"http:\/\/\/farm3.staticflickr.com\/2333\/2429453873_a5fa92af44.jpg"}},{"type":"Feature","geometry":{"type":"Point","coordinates":[-74.002318,40.757083]},"properties":{"title":"More of the nerd herd","marker-color":"#944120","marker-size":"small","marker-symbol":"","image":"http:\/\/\/farm3.staticflickr.com\/2264\/2449976483_bf61ffd0b3_q.jpg","url":"http:\/\/\/farm3.staticflickr.com\/2264\/2449976483_bf61ffd0b3.jpg"}},{"type":"Feature","geometry":{"type":"Point","coordinates":[-74.002318,40.757083]},"properties":{"title":"BANG!  You're dead.","marker-color":"#944120","marker-size":"small","marker-symbol":"","image":"http:\/\/\/farm3.staticflickr.com\/2323\/2430305026_60b2513e5b_q.jpg","url":"http:\/\/\/farm3.staticflickr.com\/2323\/2430305026_60b2513e5b.jpg"}},{"type":"Feature","geometry":{"type":"Point","coordinates":[-74.002318,40.757083]},"properties":{"title":"Character whose name I forgot.","marker-color":"#944120","marker-size":"small","marker-symbol":"","image":"http:\/\/\/farm3.staticflickr.com\/2120\/2430336066_b42ae34fbb_q.jpg","url":"http:\/\/\/farm3.staticflickr.com\/2120\/2430336066_b42ae34fbb.jpg"}},{"type":"Feature","geometry":{"type":"Point","coordinates":[-74.002318,40.757083]},"properties":{"title":"Look'n all slavey","marker-color":"#944120","marker-size":"small","marker-symbol":"","image":"http:\/\/\/farm4.staticflickr.com\/3222\/2429447247_30f3c438fc_q.jpg","url":"http:\/\/\/farm4.staticflickr.com\/3222\/2429447247_30f3c438fc.jpg"}},{"type":"Feature","geometry":{"type":"Point","coordinates":[-74.002318,40.757083]},"properties":{"title":"The Andromeda Strain","marker-color":"#944120","marker-size":"small","marker-symbol":"","image":"http:\/\/\/farm4.staticflickr.com\/3235\/2430183790_043783f7d4_q.jpg","url":"http:\/\/\/farm4.staticflickr.com\/3235\/2430183790_043783f7d4.jpg"}},{"type":"Feature","geometry":{"type":"Point","coordinates":[-74.002318,40.757083]},"properties":{"title":"Mr. T pitty's the fools and their four guns!","marker-color":"#944120","marker-size":"small","marker-symbol":"","image":"http:\/\/\/farm4.staticflickr.com\/3083\/2430325476_14bb1ab93d_q.jpg","url":"http:\/\/\/farm4.staticflickr.com\/3083\/2430325476_14bb1ab93d.jpg"}},{"type":"Feature","geometry":{"type":"Point","coordinates":[-74.002318,40.757083]},"properties":{"title":"Harley in profile","marker-color":"#944120","marker-size":"small","marker-symbol":"","image":"http:\/\/\/farm3.staticflickr.com\/2206\/2430339376_e6fbd14e50_q.jpg","url":"http:\/\/\/farm3.staticflickr.com\/2206\/2430339376_e6fbd14e50.jpg"}},{"type":"Feature","geometry":{"type":"Point","coordinates":[-74.002318,40.757083]},"properties":{"title":"Holy carp, we've all got chains!","marker-color":"#944120","marker-size":"small","marker-symbol":"","image":"http:\/\/\/farm4.staticflickr.com\/3226\/2430310614_6d42e81ac3_q.jpg","url":"http:\/\/\/farm4.staticflickr.com\/3226\/2430310614_6d42e81ac3.jpg"}},{"type":"Feature","geometry":{"type":"Point","coordinates":[-74.002318,40.757083]},"properties":{"title":"A small gathering of the Slave Leias","marker-color":"#944120","marker-size":"small","marker-symbol":"","image":"http:\/\/\/farm3.staticflickr.com\/2285\/2429458709_77e89dc482_q.jpg","url":"http:\/\/\/farm3.staticflickr.com\/2285\/2429458709_77e89dc482.jpg"}},{"type":"Feature","geometry":{"type":"Point","coordinates":[-74.002318,40.757083]},"properties":{"title":"Spider-man faces his worst threat yet: South Peak Games","marker-color":"#944120","marker-size":"small","marker-symbol":"","image":"http:\/\/\/farm4.staticflickr.com\/3211\/2430208812_26a5b3ce6d_q.jpg","url":"http:\/\/\/farm4.staticflickr.com\/3211\/2430208812_26a5b3ce6d.jpg"}},{"type":"Feature","geometry":{"type":"Point","coordinates":[-74.002318,40.757083]},"properties":{"title":"The first Slave Leia I saw","marker-color":"#944120","marker-size":"small","marker-symbol":"","image":"http:\/\/\/farm3.staticflickr.com\/2404\/2429445565_eef31377f2_q.jpg","url":"http:\/\/\/farm3.staticflickr.com\/2404\/2429445565_eef31377f2.jpg"}},{"type":"Feature","geometry":{"type":"Point","coordinates":[-74.002318,40.757083]},"properties":{"title":"The Slave Master is pleased","marker-color":"#944120","marker-size":"small","marker-symbol":"","image":"http:\/\/\/farm3.staticflickr.com\/2026\/2430255996_67a709415e_q.jpg","url":"http:\/\/\/farm3.staticflickr.com\/2026\/2430255996_67a709415e.jpg"}},{"type":"Feature","geometry":{"type":"Point","coordinates":[-74.002318,40.757083]},"properties":{"title":"New York Comic Con 256","marker-color":"#944120","marker-size":"small","marker-symbol":"","image":"http:\/\/\/farm3.staticflickr.com\/2342\/2430254126_960442129c_q.jpg","url":"http:\/\/\/farm3.staticflickr.com\/2342\/2430254126_960442129c.jpg"}},{"type":"Feature","geometry":{"type":"Point","coordinates":[-74.002318,40.757083]},"properties":{"title":"Loli loev storm trooper!","marker-color":"#944120","marker-size":"small","marker-symbol":"","image":"http:\/\/\/farm3.staticflickr.com\/2371\/2429474935_67b878d62c_q.jpg","url":"http:\/\/\/farm3.staticflickr.com\/2371\/2429474935_67b878d62c.jpg"}},{"type":"Feature","geometry":{"type":"Point","coordinates":[-74.002318,40.757083]},"properties":{"title":"The Incredible Hulk","marker-color":"#944120","marker-size":"small","marker-symbol":"","image":"http:\/\/\/farm3.staticflickr.com\/2260\/2430186552_b176ced1d5_q.jpg","url":"http:\/\/\/farm3.staticflickr.com\/2260\/2430186552_b176ced1d5.jpg"}},{"type":"Feature","geometry":{"type":"Point","coordinates":[-74.002318,40.757083]},"properties":{"title":"Slave Leias on display","marker-color":"#944120","marker-size":"small","marker-symbol":"","image":"http:\/\/\/farm3.staticflickr.com\/2091\/2430274742_5f92ccba9b_q.jpg","url":"http:\/\/\/farm3.staticflickr.com\/2091\/2430274742_5f92ccba9b.jpg"}},{"type":"Feature","geometry":{"type":"Point","coordinates":[-74.002318,40.757083]},"properties":{"title":"Female jedi in shiny, tight clothing","marker-color":"#944120","marker-size":"small","marker-symbol":"","image":"http:\/\/\/farm3.staticflickr.com\/2354\/2429482593_c038d0110f_q.jpg","url":"http:\/\/\/farm3.staticflickr.com\/2354\/2429482593_c038d0110f.jpg"}},{"type":"Feature","geometry":{"type":"Point","coordinates":[-74.002318,40.757083]},"properties":{"title":"New York Comic Con 210","marker-color":"#944120","marker-size":"small","marker-symbol":"","image":"http:\/\/\/farm3.staticflickr.com\/2188\/2429424409_fee950552b_q.jpg","url":"http:\/\/\/farm3.staticflickr.com\/2188\/2429424409_fee950552b.jpg"}},{"type":"Feature","geometry":{"type":"Point","coordinates":[-74.002318,40.757083]},"properties":{"title":"The Slave Girls at NYCC '08","marker-color":"#944120","marker-size":"small","marker-symbol":"","image":"http:\/\/\/farm3.staticflickr.com\/2415\/2430311922_cc73298e93_q.jpg","url":"http:\/\/\/farm3.staticflickr.com\/2415\/2430311922_cc73298e93.jpg"}},{"type":"Feature","geometry":{"type":"Point","coordinates":[-74.002318,40.757083]},"properties":{"title":"Too cool for you","marker-color":"#944120","marker-size":"small","marker-symbol":"","image":"http:\/\/\/farm3.staticflickr.com\/2108\/2430268034_ce9845941b_q.jpg","url":"http:\/\/\/farm3.staticflickr.com\/2108\/2430268034_ce9845941b.jpg"}},{"type":"Feature","geometry":{"type":"Point","coordinates":[-74.002318,40.757083]},"properties":{"title":"What are you looking at?","marker-color":"#944120","marker-size":"small","marker-symbol":"","image":"http:\/\/\/farm3.staticflickr.com\/2237\/2430277822_84cb377977_q.jpg","url":"http:\/\/\/farm3.staticflickr.com\/2237\/2430277822_84cb377977.jpg"}},{"type":"Feature","geometry":{"type":"Point","coordinates":[-74.002318,40.757083]},"properties":{"title":"Boba Fett will totally hunt your bounty.","marker-color":"#944120","marker-size":"small","marker-symbol":"","image":"http:\/\/\/farm3.staticflickr.com\/2076\/2430293256_6c582b30e8_q.jpg","url":"http:\/\/\/farm3.staticflickr.com\/2076\/2430293256_6c582b30e8.jpg"}},{"type":"Feature","geometry":{"type":"Point","coordinates":[-74.002318,40.757083]},"properties":{"title":"Slavekinis and weird old cars","marker-color":"#944120","marker-size":"small","marker-symbol":"","image":"http:\/\/\/farm3.staticflickr.com\/2240\/2429469153_9aa9a4609a_q.jpg","url":"http:\/\/\/farm3.staticflickr.com\/2240\/2429469153_9aa9a4609a.jpg"}},{"type":"Feature","geometry":{"type":"Point","coordinates":[-74.002318,40.757083]},"properties":{"title":"She's looking right at me!","marker-color":"#944120","marker-size":"small","marker-symbol":"","image":"http:\/\/\/farm3.staticflickr.com\/2123\/2430314632_48bedac5af_q.jpg","url":"http:\/\/\/farm3.staticflickr.com\/2123\/2430314632_48bedac5af.jpg"}},{"type":"Feature","geometry":{"type":"Point","coordinates":[-74.002318,40.757083]},"properties":{"title":"There's more than one","marker-color":"#944120","marker-size":"small","marker-symbol":"","image":"http:\/\/\/farm4.staticflickr.com\/3013\/2430269608_30af9b96c3_q.jpg","url":"http:\/\/\/farm4.staticflickr.com\/3013\/2430269608_30af9b96c3.jpg"}},{"type":"Feature","geometry":{"type":"Point","coordinates":[-74.002318,40.757083]},"properties":{"title":"The Ghost","marker-color":"#944120","marker-size":"small","marker-symbol":"","image":"http:\/\/\/farm3.staticflickr.com\/2014\/2429519249_b05bb097d1_q.jpg","url":"http:\/\/\/farm3.staticflickr.com\/2014\/2429519249_b05bb097d1.jpg"}},{"type":"Feature","geometry":{"type":"Point","coordinates":[-74.001717,40.757932]},"properties":{"title":"Jessica Nigri","marker-color":"#944120","marker-size":"small","marker-symbol":"","image":"http:\/\/\/farm7.staticflickr.com\/6058\/6259051517_73af310c54_q.jpg","url":"http:\/\/\/farm7.staticflickr.com\/6058\/6259051517_73af310c54.jpg"}},{"type":"Feature","geometry":{"type":"Point","coordinates":[-74.001899,40.75822]},"properties":{"title":"geek love","marker-color":"#944120","marker-size":"small","marker-symbol":"","image":"http:\/\/\/farm4.staticflickr.com\/3168\/2896988268_9ff070ed9d_q.jpg","url":"http:\/\/\/farm4.staticflickr.com\/3168\/2896988268_9ff070ed9d.jpg"}},{"type":"Feature","geometry":{"type":"Point","coordinates":[-73.991353,40.730928]},"properties":{"title":"Clever Barbie. #geek #barbie #nyc #newyork #newyorkcity","marker-color":"#944120","marker-size":"small","marker-symbol":"","image":"http:\/\/\/farm8.staticflickr.com\/7147\/6578021563_c248f481f1_q.jpg","url":"http:\/\/\/farm8.staticflickr.com\/7147\/6578021563_c248f481f1.jpg"}},{"type":"Feature","geometry":{"type":"Point","coordinates":[-73.997435,40.729966]},"properties":{"title":"You know you're a geek when you see this and think it's a new Python framework.","marker-color":"#944120","marker-size":"small","marker-symbol":"","image":"http:\/\/\/farm3.staticflickr.com\/2521\/4077331787_01dba508d7_q.jpg","url":"http:\/\/\/farm3.staticflickr.com\/2521\/4077331787_01dba508d7.jpg"}},{"type":"Feature","geometry":{"type":"Point","coordinates":[-73.997496,40.730503]},"properties":{"title":"#freehugs is down!!!","marker-color":"#944120","marker-size":"small","marker-symbol":"","image":"http:\/\/\/farm7.staticflickr.com\/6166\/6179513351_651c7635de_q.jpg","url":"http:\/\/\/farm7.staticflickr.com\/6166\/6179513351_651c7635de.jpg"}},{"type":"Feature","geometry":{"type":"Point","coordinates":[-73.997496,40.730503]},"properties":{"title":"The sith?","marker-color":"#944120","marker-size":"small","marker-symbol":"","image":"http:\/\/\/farm7.staticflickr.com\/6160\/6179657313_278f6558fe_q.jpg","url":"http:\/\/\/farm7.staticflickr.com\/6160\/6179657313_278f6558fe.jpg"}},{"type":"Feature","geometry":{"type":"Point","coordinates":[-73.99764,40.730836]},"properties":{"title":"Batman is a Jedi?","marker-color":"#944120","marker-size":"small","marker-symbol":"","image":"http:\/\/\/farm7.staticflickr.com\/6161\/6180022074_39c6aa5a6e_q.jpg","url":"http:\/\/\/farm7.staticflickr.com\/6161\/6180022074_39c6aa5a6e.jpg"}},{"type":"Feature","geometry":{"type":"Point","coordinates":[-73.99764,40.730836]},"properties":{"title":"After lightsabers battle 2011...","marker-color":"#944120","marker-size":"small","marker-symbol":"","image":"http:\/\/\/farm7.staticflickr.com\/6168\/6179555449_af6da1c0f7_q.jpg","url":"http:\/\/\/farm7.staticflickr.com\/6168\/6179555449_af6da1c0f7.jpg"}},{"type":"Feature","geometry":{"type":"Point","coordinates":[-73.989226,40.731697]},"properties":{"title":"Mayer Hawthorn representing for #sexy geeks everywhere","marker-color":"#944120","marker-size":"small","marker-symbol":"","image":"http:\/\/\/farm8.staticflickr.com\/7042\/6939995524_ca9e6d7590_q.jpg","url":"http:\/\/\/farm8.staticflickr.com\/7042\/6939995524_ca9e6d7590.jpg"}},{"type":"Feature","geometry":{"type":"Point","coordinates":[-73.9907,40.7338]},"properties":{"title":"The geek tweet aftermath","marker-color":"#944120","marker-size":"small","marker-symbol":"","image":"http:\/\/\/farm7.staticflickr.com\/6130\/6015111403_295bd52a7c_q.jpg","url":"http:\/\/\/farm7.staticflickr.com\/6130\/6015111403_295bd52a7c.jpg"}},{"type":"Feature","geometry":{"type":"Point","coordinates":[-73.9907,40.7338]},"properties":{"title":"Geek tweet scavenger hunt","marker-color":"#944120","marker-size":"small","marker-symbol":"","image":"http:\/\/\/farm7.staticflickr.com\/6135\/6015234256_81cb90a695_q.jpg","url":"http:\/\/\/farm7.staticflickr.com\/6135\/6015234256_81cb90a695.jpg"}},{"type":"Feature","geometry":{"type":"Point","coordinates":[-73.99019,40.73352]},"properties":{"title":"Hopeful solution to my WIFI woes","marker-color":"#944120","marker-size":"small","marker-symbol":"","image":"http:\/\/\/farm4.staticflickr.com\/3561\/3409790956_f1588e86aa_q.jpg","url":"http:\/\/\/farm4.staticflickr.com\/3561\/3409790956_f1588e86aa.jpg"}},{"type":"Feature","geometry":{"type":"Point","coordinates":[-73.992732,40.724205]},"properties":{"title":"Whole Fudz geek joke","marker-color":"#944120","marker-size":"small","marker-symbol":"","image":"http:\/\/\/farm2.staticflickr.com\/1066\/1316673203_a813c0a577_q.jpg","url":"http:\/\/\/farm2.staticflickr.com\/1066\/1316673203_a813c0a577.jpg"}},{"type":"Feature","geometry":{"type":"Point","coordinates":[-73.9965,40.724666]},"properties":{"title":"March 07, 2012","marker-color":"#944120","marker-size":"small","marker-symbol":"","image":"http:\/\/\/farm8.staticflickr.com\/7236\/7153506679_854a56a904_q.jpg","url":"http:\/\/\/farm8.staticflickr.com\/7236\/7153506679_854a56a904.jpg"}},{"type":"Feature","geometry":{"type":"Point","coordinates":[-73.990645,40.734966]},"properties":{"title":"2010-05-31 - 100L2023","marker-color":"#944120","marker-size":"small","marker-symbol":"","image":"http:\/\/\/farm2.staticflickr.com\/1107\/5125559891_6b74a6b373_q.jpg","url":"http:\/\/\/farm2.staticflickr.com\/1107\/5125559891_6b74a6b373.jpg"}},{"type":"Feature","geometry":{"type":"Point","coordinates":[-73.999729,40.733981]},"properties":{"title":"GEEK eyewear at Cohen's Fashion Optic store in NY","marker-color":"#944120","marker-size":"small","marker-symbol":"","image":"http:\/\/\/farm9.staticflickr.com\/8295\/7790247790_ffe395bbb0_q.jpg","url":"http:\/\/\/farm9.staticflickr.com\/8295\/7790247790_ffe395bbb0.jpg"}},{"type":"Feature","geometry":{"type":"Point","coordinates":[-73.990259,40.736299]},"properties":{"title":"Union Square Geek - Balloon","marker-color":"#944120","marker-size":"small","marker-symbol":"","image":"http:\/\/\/farm1.staticflickr.com\/17\/21715839_374b46a63c_q.jpg","url":"http:\/\/\/farm1.staticflickr.com\/17\/21715839_374b46a63c.jpg"}},{"type":"Feature","geometry":{"type":"Point","coordinates":[-73.990259,40.736299]},"properties":{"title":"Union Square Geek - Fire","marker-color":"#944120","marker-size":"small","marker-symbol":"","image":"http:\/\/\/farm1.staticflickr.com\/16\/21715847_576c6e251e_q.jpg","url":"http:\/\/\/farm1.staticflickr.com\/16\/21715847_576c6e251e.jpg"}},{"type":"Feature","geometry":{"type":"Point","coordinates":[-73.990259,40.736299]},"properties":{"title":"Union Square Geek - Balloon","marker-color":"#944120","marker-size":"small","marker-symbol":"","image":"http:\/\/\/farm1.staticflickr.com\/15\/21715797_2cf94ad684_q.jpg","url":"http:\/\/\/farm1.staticflickr.com\/15\/21715797_2cf94ad684.jpg"}},{"type":"Feature","geometry":{"type":"Point","coordinates":[-73.990259,40.736299]},"properties":{"title":"Union Square Geek - Fire","marker-color":"#944120","marker-size":"small","marker-symbol":"","image":"http:\/\/\/farm1.staticflickr.com\/15\/21715961_ca30ec48b4_q.jpg","url":"http:\/\/\/farm1.staticflickr.com\/15\/21715961_ca30ec48b4.jpg"}},{"type":"Feature","geometry":{"type":"Point","coordinates":[-73.990259,40.736299]},"properties":{"title":"Union Square Geek - Fire","marker-color":"#944120","marker-size":"small","marker-symbol":"","image":"http:\/\/\/farm1.staticflickr.com\/16\/21716049_e3c5ce37a9_q.jpg","url":"http:\/\/\/farm1.staticflickr.com\/16\/21716049_e3c5ce37a9.jpg"}},{"type":"Feature","geometry":{"type":"Point","coordinates":[-73.990259,40.736299]},"properties":{"title":"Union Square Geek - Balloon","marker-color":"#944120","marker-size":"small","marker-symbol":"","image":"http:\/\/\/farm1.staticflickr.com\/16\/21715791_5ea9605e14_q.jpg","url":"http:\/\/\/farm1.staticflickr.com\/16\/21715791_5ea9605e14.jpg"}},{"type":"Feature","geometry":{"type":"Point","coordinates":[-73.990259,40.736299]},"properties":{"title":"Union Square Geek","marker-color":"#944120","marker-size":"small","marker-symbol":"","image":"http:\/\/\/farm1.staticflickr.com\/15\/21715773_951825845f_q.jpg","url":"http:\/\/\/farm1.staticflickr.com\/15\/21715773_951825845f.jpg"}},{"type":"Feature","geometry":{"type":"Point","coordinates":[-73.990259,40.736299]},"properties":{"title":"Union Square Geek - Fire","marker-color":"#944120","marker-size":"small","marker-symbol":"","image":"http:\/\/\/farm1.staticflickr.com\/17\/21715944_71e0ca79ae_q.jpg","url":"http:\/\/\/farm1.staticflickr.com\/17\/21715944_71e0ca79ae.jpg"}},{"type":"Feature","geometry":{"type":"Point","coordinates":[-73.990259,40.736299]},"properties":{"title":"Union Square Geek - Fire","marker-color":"#944120","marker-size":"small","marker-symbol":"","image":"http:\/\/\/farm1.staticflickr.com\/16\/21715886_b7854af322_q.jpg","url":"http:\/\/\/farm1.staticflickr.com\/16\/21715886_b7854af322.jpg"}},{"type":"Feature","geometry":{"type":"Point","coordinates":[-73.990259,40.736299]},"properties":{"title":"Union Square Geek - Fire","marker-color":"#944120","marker-size":"small","marker-symbol":"","image":"http:\/\/\/farm1.staticflickr.com\/16\/21716101_e647ab1723_q.jpg","url":"http:\/\/\/farm1.staticflickr.com\/16\/21716101_e647ab1723.jpg"}},{"type":"Feature","geometry":{"type":"Point","coordinates":[-73.990259,40.736299]},"properties":{"title":"Union Square Geek - Balloon","marker-color":"#944120","marker-size":"small","marker-symbol":"","image":"http:\/\/\/farm1.staticflickr.com\/15\/21715802_848ef55723_q.jpg","url":"http:\/\/\/farm1.staticflickr.com\/15\/21715802_848ef55723.jpg"}},{"type":"Feature","geometry":{"type":"Point","coordinates":[-73.990259,40.736299]},"properties":{"title":"Union Square Geek - Balloon","marker-color":"#944120","marker-size":"small","marker-symbol":"","image":"http:\/\/\/farm1.staticflickr.com\/17\/21715812_1c794f8948_q.jpg","url":"http:\/\/\/farm1.staticflickr.com\/17\/21715812_1c794f8948.jpg"}},{"type":"Feature","geometry":{"type":"Point","coordinates":[-73.990259,40.736299]},"properties":{"title":"Union Square Geek - Rubber Glove","marker-color":"#944120","marker-size":"small","marker-symbol":"","image":"http:\/\/\/farm1.staticflickr.com\/15\/21716162_68bb8c10e1_q.jpg","url":"http:\/\/\/farm1.staticflickr.com\/15\/21716162_68bb8c10e1.jpg"}},{"type":"Feature","geometry":{"type":"Point","coordinates":[-73.990259,40.736299]},"properties":{"title":"Union Square Geek - Balloon","marker-color":"#944120","marker-size":"small","marker-symbol":"","image":"http:\/\/\/farm1.staticflickr.com\/15\/21715820_6bf71a9568_q.jpg","url":"http:\/\/\/farm1.staticflickr.com\/15\/21715820_6bf71a9568.jpg"}},{"type":"Feature","geometry":{"type":"Point","coordinates":[-73.990259,40.736299]},"properties":{"title":"Union Square Geek - Rubber Glove","marker-color":"#944120","marker-size":"small","marker-symbol":"","image":"http:\/\/\/farm1.staticflickr.com\/17\/21716117_0dc0e9b3c3_q.jpg","url":"http:\/\/\/farm1.staticflickr.com\/17\/21716117_0dc0e9b3c3.jpg"}},{"type":"Feature","geometry":{"type":"Point","coordinates":[-73.990259,40.736299]},"properties":{"title":"Union Square Geek - Rubber Glove","marker-color":"#944120","marker-size":"small","marker-symbol":"","image":"http:\/\/\/farm1.staticflickr.com\/17\/21716195_967b02579f_q.jpg","url":"http:\/\/\/farm1.staticflickr.com\/17\/21716195_967b02579f.jpg"}},{"type":"Feature","geometry":{"type":"Point","coordinates":[-73.990259,40.736299]},"properties":{"title":"Union Square Geek - Fire","marker-color":"#944120","marker-size":"small","marker-symbol":"","image":"http:\/\/\/farm1.staticflickr.com\/17\/21715929_9f3eb25340_q.jpg","url":"http:\/\/\/farm1.staticflickr.com\/17\/21715929_9f3eb25340.jpg"}},{"type":"Feature","geometry":{"type":"Point","coordinates":[-73.990259,40.736299]},"properties":{"title":"Union Square Geek - Fire","marker-color":"#944120","marker-size":"small","marker-symbol":"","image":"http:\/\/\/farm1.staticflickr.com\/15\/21715923_38d2aba7d7_q.jpg","url":"http:\/\/\/farm1.staticflickr.com\/15\/21715923_38d2aba7d7.jpg"}},{"type":"Feature","geometry":{"type":"Point","coordinates":[-73.990259,40.736299]},"properties":{"title":"Union Square Geek - Rubber Glove","marker-color":"#944120","marker-size":"small","marker-symbol":"","image":"http:\/\/\/farm1.staticflickr.com\/16\/21716107_487401204d_q.jpg","url":"http:\/\/\/farm1.staticflickr.com\/16\/21716107_487401204d.jpg"}},{"type":"Feature","geometry":{"type":"Point","coordinates":[-73.990259,40.736299]},"properties":{"title":"Union Square Geek - Fire","marker-color":"#944120","marker-size":"small","marker-symbol":"","image":"http:\/\/\/farm1.staticflickr.com\/15\/21715866_71f7a6aa5f_q.jpg","url":"http:\/\/\/farm1.staticflickr.com\/15\/21715866_71f7a6aa5f.jpg"}},{"type":"Feature","geometry":{"type":"Point","coordinates":[-73.990259,40.736299]},"properties":{"title":"Union Square Geek - Fire","marker-color":"#944120","marker-size":"small","marker-symbol":"","image":"http:\/\/\/farm1.staticflickr.com\/16\/21715978_33ea02926d_q.jpg","url":"http:\/\/\/farm1.staticflickr.com\/16\/21715978_33ea02926d.jpg"}},{"type":"Feature","geometry":{"type":"Point","coordinates":[-73.990259,40.736299]},"properties":{"title":"Union Square Geek - Balloon","marker-color":"#944120","marker-size":"small","marker-symbol":"","image":"http:\/\/\/farm1.staticflickr.com\/15\/21715780_34d55db4e0_q.jpg","url":"http:\/\/\/farm1.staticflickr.com\/15\/21715780_34d55db4e0.jpg"}},{"type":"Feature","geometry":{"type":"Point","coordinates":[-73.990259,40.736299]},"properties":{"title":"Union Square Geek - Fire","marker-color":"#944120","marker-size":"small","marker-symbol":"","image":"http:\/\/\/farm1.staticflickr.com\/15\/21716009_2e10d24790_q.jpg","url":"http:\/\/\/farm1.staticflickr.com\/15\/21716009_2e10d24790.jpg"}},{"type":"Feature","geometry":{"type":"Point","coordinates":[-73.990259,40.736299]},"properties":{"title":"Union Square Geek - Fire","marker-color":"#944120","marker-size":"small","marker-symbol":"","image":"http:\/\/\/farm1.staticflickr.com\/16\/21716082_e7bed5b076_q.jpg","url":"http:\/\/\/farm1.staticflickr.com\/16\/21716082_e7bed5b076.jpg"}},{"type":"Feature","geometry":{"type":"Point","coordinates":[-73.990259,40.736299]},"properties":{"title":"Union Square Geek - Rubber Glove","marker-color":"#944120","marker-size":"small","marker-symbol":"","image":"http:\/\/\/farm1.staticflickr.com\/15\/21716184_5a112027ca_q.jpg","url":"http:\/\/\/farm1.staticflickr.com\/15\/21716184_5a112027ca.jpg"}},{"type":"Feature","geometry":{"type":"Point","coordinates":[-73.990259,40.736299]},"properties":{"title":"Union Square Geek - Fire","marker-color":"#944120","marker-size":"small","marker-symbol":"","image":"http:\/\/\/farm1.staticflickr.com\/16\/21715900_bac53d7b9e_q.jpg","url":"http:\/\/\/farm1.staticflickr.com\/16\/21715900_bac53d7b9e.jpg"}},{"type":"Feature","geometry":{"type":"Point","coordinates":[-73.990259,40.736299]},"properties":{"title":"Union Square Geek - Fire","marker-color":"#944120","marker-size":"small","marker-symbol":"","image":"http:\/\/\/farm1.staticflickr.com\/17\/21715907_2ab3603bc5_q.jpg","url":"http:\/\/\/farm1.staticflickr.com\/17\/21715907_2ab3603bc5.jpg"}},{"type":"Feature","geometry":{"type":"Point","coordinates":[-73.990259,40.736299]},"properties":{"title":"Union Square Geek - Rubber Glove","marker-color":"#944120","marker-size":"small","marker-symbol":"","image":"http:\/\/\/farm1.staticflickr.com\/16\/21716169_a05414a285_q.jpg","url":"http:\/\/\/farm1.staticflickr.com\/16\/21716169_a05414a285.jpg"}},{"type":"Feature","geometry":{"type":"Point","coordinates":[-73.990259,40.736299]},"properties":{"title":"Union Square Geek - Fire","marker-color":"#944120","marker-size":"small","marker-symbol":"","image":"http:\/\/\/farm1.staticflickr.com\/17\/21716032_3dfc6aac1c_q.jpg","url":"http:\/\/\/farm1.staticflickr.com\/17\/21716032_3dfc6aac1c.jpg"}},{"type":"Feature","geometry":{"type":"Point","coordinates":[-73.990259,40.736299]},"properties":{"title":"Union Square Geek - Rubber Glove","marker-color":"#944120","marker-size":"small","marker-symbol":"","image":"http:\/\/\/farm1.staticflickr.com\/16\/21716180_752bd36127_q.jpg","url":"http:\/\/\/farm1.staticflickr.com\/16\/21716180_752bd36127.jpg"}},{"type":"Feature","geometry":{"type":"Point","coordinates":[-73.990259,40.736299]},"properties":{"title":"Union Square Geek - Fire","marker-color":"#944120","marker-size":"small","marker-symbol":"","image":"http:\/\/\/farm1.staticflickr.com\/17\/21715852_7f0c2f64f4_q.jpg","url":"http:\/\/\/farm1.staticflickr.com\/17\/21715852_7f0c2f64f4.jpg"}},{"type":"Feature","geometry":{"type":"Point","coordinates":[-73.990259,40.736299]},"properties":{"title":"Union Square Geek - Fire","marker-color":"#944120","marker-size":"small","marker-symbol":"","image":"http:\/\/\/farm1.staticflickr.com\/16\/21716095_06ac240263_q.jpg","url":"http:\/\/\/farm1.staticflickr.com\/16\/21716095_06ac240263.jpg"}},{"type":"Feature","geometry":{"type":"Point","coordinates":[-73.990259,40.736299]},"properties":{"title":"Union Square Geek - Rubber Glove","marker-color":"#944120","marker-size":"small","marker-symbol":"","image":"http:\/\/\/farm1.staticflickr.com\/15\/21716150_45599d100d_q.jpg","url":"http:\/\/\/farm1.staticflickr.com\/15\/21716150_45599d100d.jpg"}},{"type":"Feature","geometry":{"type":"Point","coordinates":[-73.990259,40.736299]},"properties":{"title":"Union Square Geek - Rubber Glove","marker-color":"#944120","marker-size":"small","marker-symbol":"","image":"http:\/\/\/farm1.staticflickr.com\/16\/21716144_6cc8b3034c_q.jpg","url":"http:\/\/\/farm1.staticflickr.com\/16\/21716144_6cc8b3034c.jpg"}},{"type":"Feature","geometry":{"type":"Point","coordinates":[-73.990259,40.736299]},"properties":{"title":"Union Square Geek - Balloon","marker-color":"#944120","marker-size":"small","marker-symbol":"","image":"http:\/\/\/farm1.staticflickr.com\/17\/21715832_6128a2e037_q.jpg","url":"http:\/\/\/farm1.staticflickr.com\/17\/21715832_6128a2e037.jpg"}},{"type":"Feature","geometry":{"type":"Point","coordinates":[-73.990259,40.736299]},"properties":{"title":"Union Square Geek - Rubber Glove","marker-color":"#944120","marker-size":"small","marker-symbol":"","image":"http:\/\/\/farm1.staticflickr.com\/16\/21716190_1fe8262a28_q.jpg","url":"http:\/\/\/farm1.staticflickr.com\/16\/21716190_1fe8262a28.jpg"}},{"type":"Feature","geometry":{"type":"Point","coordinates":[-73.990259,40.736299]},"properties":{"title":"Union Square Geek - Fire","marker-color":"#944120","marker-size":"small","marker-symbol":"","image":"http:\/\/\/farm1.staticflickr.com\/16\/21715918_8423a145f2_q.jpg","url":"http:\/\/\/farm1.staticflickr.com\/16\/21715918_8423a145f2.jpg"}},{"type":"Feature","geometry":{"type":"Point","coordinates":[-73.990259,40.736299]},"properties":{"title":"Union Square Geek - Fire","marker-color":"#944120","marker-size":"small","marker-symbol":"","image":"http:\/\/\/farm1.staticflickr.com\/16\/21715871_cca1328317_q.jpg","url":"http:\/\/\/farm1.staticflickr.com\/16\/21715871_cca1328317.jpg"}},{"type":"Feature","geometry":{"type":"Point","coordinates":[-73.990259,40.736299]},"properties":{"title":"Union Square Geek - Rubber Glove","marker-color":"#944120","marker-size":"small","marker-symbol":"","image":"http:\/\/\/farm1.staticflickr.com\/16\/21716141_3415685db2_q.jpg","url":"http:\/\/\/farm1.staticflickr.com\/16\/21716141_3415685db2.jpg"}},{"type":"Feature","geometry":{"type":"Point","coordinates":[-73.990259,40.736299]},"properties":{"title":"Union Square Geek - Fire","marker-color":"#944120","marker-size":"small","marker-symbol":"","image":"http:\/\/\/farm1.staticflickr.com\/17\/21716091_9596fcda43_q.jpg","url":"http:\/\/\/farm1.staticflickr.com\/17\/21716091_9596fcda43.jpg"}},{"type":"Feature","geometry":{"type":"Point","coordinates":[-73.997129,40.722166]},"properties":{"title":"Two more converted to social media #geeks. Plan to brainwash everyone!","marker-color":"#944120","marker-size":"small","marker-symbol":"","image":"http:\/\/\/farm9.staticflickr.com\/8317\/7950931882_669d0d8803_q.jpg","url":"http:\/\/\/farm9.staticflickr.com\/8317\/7950931882_669d0d8803.jpg"}},{"type":"Feature","geometry":{"type":"Point","coordinates":[-73.999528,40.723778]},"properties":{"title":"People always ask me what the best #harddrive? For internal the answers always #hitachi #HGST all day baby! #data #best #geek but hurry no telling what the same to western digital will do to product.","marker-color":"#944120","marker-size":"small","marker-symbol":"","image":"http:\/\/\/farm9.staticflickr.com\/8294\/7711527484_d453c5a123_q.jpg","url":"http:\/\/\/farm9.staticflickr.com\/8294\/7711527484_d453c5a123.jpg"}},{"type":"Feature","geometry":{"type":"Point","coordinates":[-73.996589,40.721632]},"properties":{"title":"Gadget popup - I'm in geek heaven!","marker-color":"#944120","marker-size":"small","marker-symbol":"","image":"http:\/\/\/farm7.staticflickr.com\/6107\/6333347650_6a0d51482b_q.jpg","url":"http:\/\/\/farm7.staticflickr.com\/6107\/6333347650_6a0d51482b.jpg"}},{"type":"Feature","geometry":{"type":"Point","coordinates":[-73.988735,40.737161]},"properties":{"title":"This is the geek in me. #foursquare #badges","marker-color":"#944120","marker-size":"small","marker-symbol":"","image":"http:\/\/\/farm9.staticflickr.com\/8055\/8424476433_a09a8ff3e8_q.jpg","url":"http:\/\/\/farm9.staticflickr.com\/8055\/8424476433_a09a8ff3e8.jpg"}},{"type":"Feature","geometry":{"type":"Point","coordinates":[-73.989517,40.720893]},"properties":{"title":"Brooklyn Geek","marker-color":"#944120","marker-size":"small","marker-symbol":"","image":"http:\/\/\/farm5.staticflickr.com\/4050\/4482233668_8d723b6eed_q.jpg","url":"http:\/\/\/farm5.staticflickr.com\/4050\/4482233668_8d723b6eed.jpg"}},{"type":"Feature","geometry":{"type":"Point","coordinates":[-73.98976,40.739197]},"properties":{"title":"It's like a gym. For geeks.","marker-color":"#944120","marker-size":"small","marker-symbol":"","image":"http:\/\/\/farm6.staticflickr.com\/5294\/5571980330_4173c520fd_q.jpg","url":"http:\/\/\/farm6.staticflickr.com\/5294\/5571980330_4173c520fd.jpg"}},{"type":"Feature","geometry":{"type":"Point","coordinates":[-73.989872,40.739892]},"properties":{"title":"Si llegase a incendiarse este lugar se muere el sindicato geek","marker-color":"#944120","marker-size":"small","marker-symbol":"","image":"http:\/\/\/farm3.staticflickr.com\/2892\/9412265866_0eff535916_q.jpg","url":"http:\/\/\/farm3.staticflickr.com\/2892\/9412265866_0eff535916.jpg"}},{"type":"Feature","geometry":{"type":"Point","coordinates":[-73.988159,40.739453]},"properties":{"title":"Alex and I are now matching geeks (well, my watch face is admittedly a bit nerdier)","marker-color":"#944120","marker-size":"small","marker-symbol":"","image":"http:\/\/\/farm3.staticflickr.com\/2812\/9256435483_dd591bfd30_q.jpg","url":"http:\/\/\/farm3.staticflickr.com\/2812\/9256435483_dd591bfd30.jpg"}},{"type":"Feature","geometry":{"type":"Point","coordinates":[-73.9999,40.720119]},"properties":{"title":"One Laptop per Sam","marker-color":"#944120","marker-size":"small","marker-symbol":"","image":"http:\/\/\/farm5.staticflickr.com\/4098\/4870392690_539b27beaf_q.jpg","url":"http:\/\/\/farm5.staticflickr.com\/4098\/4870392690_539b27beaf.jpg"}},{"type":"Feature","geometry":{"type":"Point","coordinates":[-73.98822,40.740116]},"properties":{"title":"Rob in front of Beppe","marker-color":"#944120","marker-size":"small","marker-symbol":"","image":"http:\/\/\/farm1.staticflickr.com\/148\/429598701_db04741410_q.jpg","url":"http:\/\/\/farm1.staticflickr.com\/148\/429598701_db04741410.jpg"}},{"type":"Feature","geometry":{"type":"Point","coordinates":[-74.004834,40.72512]},"properties":{"title":"The Eureka Moment","marker-color":"#944120","marker-size":"small","marker-symbol":"","image":"http:\/\/\/farm5.staticflickr.com\/4125\/4993479982_e065ca1b2b_q.jpg","url":"http:\/\/\/farm5.staticflickr.com\/4125\/4993479982_e065ca1b2b.jpg"}},{"type":"Feature","geometry":{"type":"Point","coordinates":[-73.989357,40.741306]},"properties":{"title":"Geek Girls Game Night @torbooks @planetpinto @irenegallo @rocklovejewelry","marker-color":"#944120","marker-size":"small","marker-symbol":"","image":"http:\/\/\/farm8.staticflickr.com\/7121\/7457698274_dce44044b1_q.jpg","url":"http:\/\/\/farm8.staticflickr.com\/7121\/7457698274_dce44044b1.jpg"}},{"type":"Feature","geometry":{"type":"Point","coordinates":[-73.983167,40.721333]},"properties":{"title":"D20 Burlesque","marker-color":"#944120","marker-size":"small","marker-symbol":"","image":"http:\/\/\/farm6.staticflickr.com\/5141\/5561183969_b53fd564c8_q.jpg","url":"http:\/\/\/farm6.staticflickr.com\/5141\/5561183969_b53fd564c8.jpg"}},{"type":"Feature","geometry":{"type":"Point","coordinates":[-74.004271,40.73827]},"properties":{"title":"lauren on jane","marker-color":"#944120","marker-size":"small","marker-symbol":"","image":"http:\/\/\/farm4.staticflickr.com\/3017\/2371531583_925b0bbe3e_q.jpg","url":"http:\/\/\/farm4.staticflickr.com\/3017\/2371531583_925b0bbe3e.jpg"}},{"type":"Feature","geometry":{"type":"Point","coordinates":[-73.997192,40.71575]},"properties":{"title":"Geek break, dim sum for lunch.","marker-color":"#944120","marker-size":"small","marker-symbol":"","image":"http:\/\/\/farm9.staticflickr.com\/8326\/8087109106_694604ab59_q.jpg","url":"http:\/\/\/farm9.staticflickr.com\/8326\/8087109106_694604ab59.jpg"}},{"type":"Feature","geometry":{"type":"Point","coordinates":[-73.9795,40.726666]},"properties":{"title":"Research shows...","marker-color":"#944120","marker-size":"small","marker-symbol":"","image":"http:\/\/\/farm5.staticflickr.com\/4087\/5000662938_99fb85f3d3_q.jpg","url":"http:\/\/\/farm5.staticflickr.com\/4087\/5000662938_99fb85f3d3.jpg"}},{"type":"Feature","geometry":{"type":"Point","coordinates":[-74.002395,40.717893]},"properties":{"title":"It turns out these were royal wedding cupcakes NOT Foursquare Mayor cupcakes #geek","marker-color":"#944120","marker-size":"small","marker-symbol":"","image":"http:\/\/\/farm6.staticflickr.com\/5270\/5670036040_82e532fede_q.jpg","url":"http:\/\/\/farm6.staticflickr.com\/5270\/5670036040_82e532fede.jpg"}},{"type":"Feature","geometry":{"type":"Point","coordinates":[-73.989663,40.744241]},"properties":{"title":"iFrog: Typing","marker-color":"#944120","marker-size":"small","marker-symbol":"","image":"http:\/\/\/farm1.staticflickr.com\/69\/156660547_66c9773d2c_q.jpg","url":"http:\/\/\/farm1.staticflickr.com\/69\/156660547_66c9773d2c.jpg"}},{"type":"Feature","geometry":{"type":"Point","coordinates":[-73.989663,40.744241]},"properties":{"title":"iFrog: Holding","marker-color":"#944120","marker-size":"small","marker-symbol":"","image":"http:\/\/\/farm1.staticflickr.com\/55\/156661885_981356574d_q.jpg","url":"http:\/\/\/farm1.staticflickr.com\/55\/156661885_981356574d.jpg"}},{"type":"Feature","geometry":{"type":"Point","coordinates":[-73.978457,40.728689]},"properties":{"title":"geek me (working from a cafe)","marker-color":"#944120","marker-size":"small","marker-symbol":"","image":"http:\/\/\/farm2.staticflickr.com\/1361\/4725557972_19540ef9a5_q.jpg","url":"http:\/\/\/farm2.staticflickr.com\/1361\/4725557972_19540ef9a5.jpg"}},{"type":"Feature","geometry":{"type":"Point","coordinates":[-73.987808,40.743957]},"properties":{"title":"Nice View","marker-color":"#944120","marker-size":"small","marker-symbol":"","image":"http:\/\/\/farm9.staticflickr.com\/8136\/8748558609_c0a00f1ff3_q.jpg","url":"http:\/\/\/farm9.staticflickr.com\/8136\/8748558609_c0a00f1ff3.jpg"}},{"type":"Feature","geometry":{"type":"Point","coordinates":[-73.987167,40.743833]},"properties":{"title":"Stuntbox and Murtaugh","marker-color":"#944120","marker-size":"small","marker-symbol":"","image":"http:\/\/\/farm5.staticflickr.com\/4151\/5097444720_87d65df43b_q.jpg","url":"http:\/\/\/farm5.staticflickr.com\/4151\/5097444720_87d65df43b.jpg"}},{"type":"Feature","geometry":{"type":"Point","coordinates":[-73.9875,40.744166]},"properties":{"title":"L'instant Geek du Voyage","marker-color":"#944120","marker-size":"small","marker-symbol":"","image":"http:\/\/\/farm6.staticflickr.com\/5009\/5308779771_f039753ccd_q.jpg","url":"http:\/\/\/farm6.staticflickr.com\/5009\/5308779771_f039753ccd.jpg"}},{"type":"Feature","geometry":{"type":"Point","coordinates":[-73.987169,40.744403]},"properties":{"title":"Geeks","marker-color":"#944120","marker-size":"small","marker-symbol":"","image":"http:\/\/\/farm3.staticflickr.com\/2642\/3857168560_fe2f33d694_q.jpg","url":"http:\/\/\/farm3.staticflickr.com\/2642\/3857168560_fe2f33d694.jpg"}},{"type":"Feature","geometry":{"type":"Point","coordinates":[-74.006733,40.719741]},"properties":{"title":"","marker-color":"#944120","marker-size":"small","marker-symbol":"","image":"http:\/\/\/farm8.staticflickr.com\/7183\/6912976745_56b03a793a_q.jpg","url":"http:\/\/\/farm8.staticflickr.com\/7183\/6912976745_56b03a793a.jpg"}},{"type":"Feature","geometry":{"type":"Point","coordinates":[-73.987975,40.74569]},"properties":{"title":"In bike geek heaven.","marker-color":"#944120","marker-size":"small","marker-symbol":"","image":"http:\/\/\/farm7.staticflickr.com\/6001\/6013097908_c25933e8ae_q.jpg","url":"http:\/\/\/farm7.staticflickr.com\/6001\/6013097908_c25933e8ae.jpg"}},{"type":"Feature","geometry":{"type":"Point","coordinates":[-74.007554,40.740152]},"properties":{"title":"RG @jonnyheadphones and his geek desk.","marker-color":"#944120","marker-size":"small","marker-symbol":"","image":"http:\/\/\/farm8.staticflickr.com\/7165\/6482415867_833c9a9b6f_q.jpg","url":"http:\/\/\/farm8.staticflickr.com\/7165\/6482415867_833c9a9b6f.jpg"}},{"type":"Feature","geometry":{"type":"Point","coordinates":[-74.007811,40.718477]},"properties":{"title":"All you film geeks need to hit this up. Got some serious stuff being screened. If you're in #nyc don't miss it!!!   #tff #tribeca #film #festival #april #acting #screening #movies #geek #manhattan #downtown #yeahyeah #volunteer #filmmaking","marker-color":"#944120","marker-size":"small","marker-symbol":"","image":"http:\/\/\/farm9.staticflickr.com\/8113\/8656109818_1be6aac904_q.jpg","url":"http:\/\/\/farm9.staticflickr.com\/8113\/8656109818_1be6aac904.jpg"}},{"type":"Feature","geometry":{"type":"Point","coordinates":[-74.007831,40.742034]},"properties":{"title":"the star wars geek in me only saw light sabers...awesome light sabers everywhere.","marker-color":"#944120","marker-size":"small","marker-symbol":"","image":"http:\/\/\/farm9.staticflickr.com\/8502\/8293150732_f9e4970ba9_q.jpg","url":"http:\/\/\/farm9.staticflickr.com\/8502\/8293150732_f9e4970ba9.jpg"}},{"type":"Feature","geometry":{"type":"Point","coordinates":[-73.99139,40.749306]},"properties":{"title":"Walked into office and Sundance is showing my favorite scene from my favorite show, Freaks and Geeks","marker-color":"#944120","marker-size":"small","marker-symbol":"","image":"http:\/\/\/farm9.staticflickr.com\/8213\/8293003428_26f143d828_q.jpg","url":"http:\/\/\/farm9.staticflickr.com\/8213\/8293003428_26f143d828.jpg"}},{"type":"Feature","geometry":{"type":"Point","coordinates":[-74.006931,40.744607]},"properties":{"title":"New York High Line","marker-color":"#944120","marker-size":"small","marker-symbol":"","image":"http:\/\/\/farm9.staticflickr.com\/8235\/8471374576_154af6654a_q.jpg","url":"http:\/\/\/farm9.staticflickr.com\/8235\/8471374576_154af6654a.jpg"}},{"type":"Feature","geometry":{"type":"Point","coordinates":[-74.007854,40.745373]},"properties":{"title":"Mobile app demos #nycmobileapps #nerds #geeks #developers","marker-color":"#944120","marker-size":"small","marker-symbol":"","image":"http:\/\/\/farm8.staticflickr.com\/7261\/7457536478_e774b3ae6b_q.jpg","url":"http:\/\/\/farm8.staticflickr.com\/7261\/7457536478_e774b3ae6b.jpg"}},{"type":"Feature","geometry":{"type":"Point","coordinates":[-74.006111,40.711905]},"properties":{"title":"Gotham Ruby Conference 2008","marker-color":"#944120","marker-size":"small","marker-symbol":"","image":"http:\/\/\/farm4.staticflickr.com\/3069\/2446049272_7a292c40c4_q.jpg","url":"http:\/\/\/farm4.staticflickr.com\/3069\/2446049272_7a292c40c4.jpg"}},{"type":"Feature","geometry":{"type":"Point","coordinates":[-74.00506,40.711217]},"properties":{"title":"Gotham Ruby Conference 2008","marker-color":"#944120","marker-size":"small","marker-symbol":"","image":"http:\/\/\/farm3.staticflickr.com\/2225\/2445194741_56ceb6f114_q.jpg","url":"http:\/\/\/farm3.staticflickr.com\/2225\/2445194741_56ceb6f114.jpg"}},{"type":"Feature","geometry":{"type":"Point","coordinates":[-74.00506,40.711217]},"properties":{"title":"Gotham Ruby Conference 2008","marker-color":"#944120","marker-size":"small","marker-symbol":"","image":"http:\/\/\/farm4.staticflickr.com\/3034\/2445989278_c9605010b9_q.jpg","url":"http:\/\/\/farm4.staticflickr.com\/3034\/2445989278_c9605010b9.jpg"}},{"type":"Feature","geometry":{"type":"Point","coordinates":[-74.00478,40.74907]},"properties":{"title":"And there it is. Nerdtastic!","marker-color":"#944120","marker-size":"small","marker-symbol":"","image":"http:\/\/\/farm9.staticflickr.com\/8219\/8332911349_7e16270053_q.jpg","url":"http:\/\/\/farm9.staticflickr.com\/8219\/8332911349_7e16270053.jpg"}},{"type":"Feature","geometry":{"type":"Point","coordinates":[-73.980567,40.747795]},"properties":{"title":"The \"Geek Squad\" -ificarion if medicine. Can the Smart Car usher in a new era of House Calls?","marker-color":"#944120","marker-size":"small","marker-symbol":"","image":"http:\/\/\/farm9.staticflickr.com\/8350\/8206159362_9b7de98555_q.jpg","url":"http:\/\/\/farm9.staticflickr.com\/8350\/8206159362_9b7de98555.jpg"}},{"type":"Feature","geometry":{"type":"Point","coordinates":[-74.01202,40.715917]},"properties":{"title":"Of course I downloaded this onto my iBooks #obsessed #lesmis #leamiserables #musical #phenomenon #thisisgettingstupidnow #ahhhh #eddieredmayne #book #reading #film #geek #art","marker-color":"#944120","marker-size":"small","marker-symbol":"","image":"http:\/\/\/farm9.staticflickr.com\/8223\/8361936867_11f52d179c_q.jpg","url":"http:\/\/\/farm9.staticflickr.com\/8223\/8361936867_11f52d179c.jpg"}},{"type":"Feature","geometry":{"type":"Point","coordinates":[-74.008818,40.74758]},"properties":{"title":"Andy B! My geek hero at #bigdataconf","marker-color":"#944120","marker-size":"small","marker-symbol":"","image":"http:\/\/\/farm6.staticflickr.com\/5178\/5553298069_eeb8394b6a_q.jpg","url":"http:\/\/\/farm6.staticflickr.com\/5178\/5553298069_eeb8394b6a.jpg"}},{"type":"Feature","geometry":{"type":"Point","coordinates":[-73.989335,40.753236]},"properties":{"title":"Geeks like pizza #geektrain","marker-color":"#944120","marker-size":"small","marker-symbol":"","image":"http:\/\/\/farm8.staticflickr.com\/7074\/7262588318_1e42c039b5_q.jpg","url":"http:\/\/\/farm8.staticflickr.com\/7074\/7262588318_1e42c039b5.jpg"}},{"type":"Feature","geometry":{"type":"Point","coordinates":[-73.989335,40.753236]},"properties":{"title":"Geeks on a Train lunch stop in New York at the new incubator and collaborative space The Hatchery","marker-color":"#944120","marker-size":"small","marker-symbol":"","image":"http:\/\/\/farm8.staticflickr.com\/7080\/7262472262_4e5780fb95_q.jpg","url":"http:\/\/\/farm8.staticflickr.com\/7080\/7262472262_4e5780fb95.jpg"}},{"type":"Feature","geometry":{"type":"Point","coordinates":[-73.991225,40.753981]},"properties":{"title":"Me w\/Garnett Lee and Ghost Card","marker-color":"#944120","marker-size":"small","marker-symbol":"","image":"http:\/\/\/farm4.staticflickr.com\/3477\/3268886160_8fce4e6680_q.jpg","url":"http:\/\/\/farm4.staticflickr.com\/3477\/3268886160_8fce4e6680.jpg"}},{"type":"Feature","geometry":{"type":"Point","coordinates":[-73.991225,40.753981]},"properties":{"title":"Me w\/Ron","marker-color":"#944120","marker-size":"small","marker-symbol":"","image":"http:\/\/\/farm4.staticflickr.com\/3378\/3268884662_1f371f81ec_q.jpg","url":"http:\/\/\/farm4.staticflickr.com\/3378\/3268884662_1f371f81ec.jpg"}},{"type":"Feature","geometry":{"type":"Point","coordinates":[-73.991225,40.753981]},"properties":{"title":"Hey! It's Garnett Lee!","marker-color":"#944120","marker-size":"small","marker-symbol":"","image":"http:\/\/\/farm4.staticflickr.com\/3392\/3268885060_b00db965c5_q.jpg","url":"http:\/\/\/farm4.staticflickr.com\/3392\/3268885060_b00db965c5.jpg"}},{"type":"Feature","geometry":{"type":"Point","coordinates":[-73.991225,40.753981]},"properties":{"title":"Johnny Johnny with the Ghost Card","marker-color":"#944120","marker-size":"small","marker-symbol":"","image":"http:\/\/\/farm4.staticflickr.com\/3464\/3268061719_f1c71a945d_q.jpg","url":"http:\/\/\/farm4.staticflickr.com\/3464\/3268061719_f1c71a945d.jpg"}},{"type":"Feature","geometry":{"type":"Point","coordinates":[-73.991225,40.753981]},"properties":{"title":"Me w\/Josh","marker-color":"#944120","marker-size":"small","marker-symbol":"","image":"http:\/\/\/farm4.staticflickr.com\/3415\/3268058677_75337c5869_q.jpg","url":"http:\/\/\/farm4.staticflickr.com\/3415\/3268058677_75337c5869.jpg"}},{"type":"Feature","geometry":{"type":"Point","coordinates":[-73.991225,40.753981]},"properties":{"title":"Ron Richards with the Ghost Card","marker-color":"#944120","marker-size":"small","marker-symbol":"","image":"http:\/\/\/farm4.staticflickr.com\/3403\/3268884352_4f25257a92_q.jpg","url":"http:\/\/\/farm4.staticflickr.com\/3403\/3268884352_4f25257a92.jpg"}},{"type":"Feature","geometry":{"type":"Point","coordinates":[-73.991225,40.753981]},"properties":{"title":"Chicken Quesadilla @Stitch","marker-color":"#944120","marker-size":"small","marker-symbol":"","image":"http:\/\/\/farm4.staticflickr.com\/3431\/3268062805_0c6f72827a_q.jpg","url":"http:\/\/\/farm4.staticflickr.com\/3431\/3268062805_0c6f72827a.jpg"}},{"type":"Feature","geometry":{"type":"Point","coordinates":[-73.991225,40.753981]},"properties":{"title":"Jose Sanchez with the Ghost Card","marker-color":"#944120","marker-size":"small","marker-symbol":"","image":"http:\/\/\/farm4.staticflickr.com\/3490\/3268887006_b51531640a_q.jpg","url":"http:\/\/\/farm4.staticflickr.com\/3490\/3268887006_b51531640a.jpg"}},{"type":"Feature","geometry":{"type":"Point","coordinates":[-73.991225,40.753981]},"properties":{"title":"Me w\/Conor","marker-color":"#944120","marker-size":"small","marker-symbol":"","image":"http:\/\/\/farm4.staticflickr.com\/3387\/3268060269_2567a69116_q.jpg","url":"http:\/\/\/farm4.staticflickr.com\/3387\/3268060269_2567a69116.jpg"}},{"type":"Feature","geometry":{"type":"Point","coordinates":[-73.991225,40.753981]},"properties":{"title":"Me w\/Shawn Smith","marker-color":"#944120","marker-size":"small","marker-symbol":"","image":"http:\/\/\/farm4.staticflickr.com\/3510\/3272329345_a4cecc2c23_q.jpg","url":"http:\/\/\/farm4.staticflickr.com\/3510\/3272329345_a4cecc2c23.jpg"}},{"type":"Feature","geometry":{"type":"Point","coordinates":[-73.991225,40.753981]},"properties":{"title":"Welcome to Stitch","marker-color":"#944120","marker-size":"small","marker-symbol":"","image":"http:\/\/\/farm4.staticflickr.com\/3422\/3273148312_9785795c34_q.jpg","url":"http:\/\/\/farm4.staticflickr.com\/3422\/3273148312_9785795c34.jpg"}},{"type":"Feature","geometry":{"type":"Point","coordinates":[-73.991225,40.753981]},"properties":{"title":"Tim Hwang with the Ghost Card","marker-color":"#944120","marker-size":"small","marker-symbol":"","image":"http:\/\/\/farm4.staticflickr.com\/3390\/3268062635_0115f9dbe1_q.jpg","url":"http:\/\/\/farm4.staticflickr.com\/3390\/3268062635_0115f9dbe1.jpg"}},{"type":"Feature","geometry":{"type":"Point","coordinates":[-73.999569,40.754189]},"properties":{"title":"New hard drive! #macbookpro #geek #awesome","marker-color":"#944120","marker-size":"small","marker-symbol":"","image":"http:\/\/\/farm7.staticflickr.com\/6134\/6189708065_1665f47e3b_q.jpg","url":"http:\/\/\/farm7.staticflickr.com\/6134\/6189708065_1665f47e3b.jpg"}},{"type":"Feature","geometry":{"type":"Point","coordinates":[-73.982276,40.753271]},"properties":{"title":"Being a good student for once. I love studying here :) #nypl #nyc #manhattan #library #gorgeous #architecture #books #geek #school #acting #study","marker-color":"#944120","marker-size":"small","marker-symbol":"","image":"http:\/\/\/farm9.staticflickr.com\/8514\/8427404711_99b81eb3df_q.jpg","url":"http:\/\/\/farm9.staticflickr.com\/8514\/8427404711_99b81eb3df.jpg"}},{"type":"Feature","geometry":{"type":"Point","coordinates":[-74.009871,40.750979]},"properties":{"title":"Van in NYC","marker-color":"#944120","marker-size":"small","marker-symbol":"","image":"http:\/\/\/farm1.staticflickr.com\/82\/216813169_a6b20fa1c9_q.jpg","url":"http:\/\/\/farm1.staticflickr.com\/82\/216813169_a6b20fa1c9.jpg"}},{"type":"Feature","geometry":{"type":"Point","coordinates":[-74.011287,40.709308]},"properties":{"title":"99%\u2026geek (the media centre)","marker-color":"#944120","marker-size":"small","marker-symbol":"","image":"http:\/\/\/farm7.staticflickr.com\/6164\/6246456967_ac081c042e_q.jpg","url":"http:\/\/\/farm7.staticflickr.com\/6164\/6246456967_ac081c042e.jpg"}},{"type":"Feature","geometry":{"type":"Point","coordinates":[-73.988413,40.756497]},"properties":{"title":"\"The Block\" on 42nd Street -- \"Pencil Neck Geek\"","marker-color":"#944120","marker-size":"small","marker-symbol":"","image":"http:\/\/\/farm7.staticflickr.com\/6096\/6309799258_9ae65f9f3d_q.jpg","url":"http:\/\/\/farm7.staticflickr.com\/6096\/6309799258_9ae65f9f3d.jpg"}},{"type":"Feature","geometry":{"type":"Point","coordinates":[-73.996467,40.756977]},"properties":{"title":"Nice! Twitter enabled Twitter Cards on my website. #geek","marker-color":"#944120","marker-size":"small","marker-symbol":"","image":"http:\/\/\/farm9.staticflickr.com\/8077\/8291776549_59182e5a47_q.jpg","url":"http:\/\/\/farm9.staticflickr.com\/8077\/8291776549_59182e5a47.jpg"}},{"type":"Feature","geometry":{"type":"Point","coordinates":[-73.989658,40.702602]},"properties":{"title":"Package","marker-color":"#944120","marker-size":"small","marker-symbol":"","image":"http:\/\/\/farm1.staticflickr.com\/132\/360784690_de0bf5a861_q.jpg","url":"http:\/\/\/farm1.staticflickr.com\/132\/360784690_de0bf5a861.jpg"}},{"type":"Feature","geometry":{"type":"Point","coordinates":[-73.996414,40.757125]},"properties":{"title":"Haha I'm not the only Apple geek on instagram  #iphone5","marker-color":"#944120","marker-size":"small","marker-symbol":"","image":"http:\/\/\/farm9.staticflickr.com\/8219\/8291709267_de8feb9de2_q.jpg","url":"http:\/\/\/farm9.staticflickr.com\/8219\/8291709267_de8feb9de2.jpg"}},{"type":"Feature","geometry":{"type":"Point","coordinates":[-73.988905,40.756962]},"properties":{"title":"Indy marathon! #amcindy #fun #amazing #geek #nyc","marker-color":"#944120","marker-size":"small","marker-symbol":"","image":"http:\/\/\/farm9.staticflickr.com\/8179\/7990169180_2bc83d85f8_q.jpg","url":"http:\/\/\/farm9.staticflickr.com\/8179\/7990169180_2bc83d85f8.jpg"}},{"type":"Feature","geometry":{"type":"Point","coordinates":[-73.998133,40.757042]},"properties":{"title":"Sea of fellow geeks. #nycc","marker-color":"#944120","marker-size":"small","marker-symbol":"","image":"http:\/\/\/farm9.staticflickr.com\/8495\/8291778831_83a25075e5_q.jpg","url":"http:\/\/\/farm9.staticflickr.com\/8495\/8291778831_83a25075e5.jpg"}},{"type":"Feature","geometry":{"type":"Point","coordinates":[-74.001001,40.75671]},"properties":{"title":"All hail the King of the Nerds!!!!! #nycc #geek","marker-color":"#944120","marker-size":"small","marker-symbol":"","image":"http:\/\/\/farm9.staticflickr.com\/8192\/8088815043_4dca8b4225_q.jpg","url":"http:\/\/\/farm9.staticflickr.com\/8192\/8088815043_4dca8b4225.jpg"}},{"type":"Feature","geometry":{"type":"Point","coordinates":[-74.001001,40.75671]},"properties":{"title":"Geek Power!","marker-color":"#944120","marker-size":"small","marker-symbol":"","image":"http:\/\/\/farm9.staticflickr.com\/8466\/8083256572_f06763a328_q.jpg","url":"http:\/\/\/farm9.staticflickr.com\/8466\/8083256572_f06763a328.jpg"}},{"type":"Feature","geometry":{"type":"Point","coordinates":[-74.00176,40.756619]},"properties":{"title":"Autographing area","marker-color":"#944120","marker-size":"small","marker-symbol":"","image":"http:\/\/\/farm7.staticflickr.com\/6229\/6251646365_30d3e6f741_q.jpg","url":"http:\/\/\/farm7.staticflickr.com\/6229\/6251646365_30d3e6f741.jpg"}},{"type":"Feature","geometry":{"type":"Point","coordinates":[-74.00176,40.756619]},"properties":{"title":"Agree.","marker-color":"#944120","marker-size":"small","marker-symbol":"","image":"http:\/\/\/farm7.staticflickr.com\/6231\/6251185659_70336bc389_q.jpg","url":"http:\/\/\/farm7.staticflickr.com\/6231\/6251185659_70336bc389.jpg"}},{"type":"Feature","geometry":{"type":"Point","coordinates":[-74.00176,40.756619]},"properties":{"title":"\"geek brains???\"","marker-color":"#944120","marker-size":"small","marker-symbol":"","image":"http:\/\/\/farm8.staticflickr.com\/7010\/6762925655_4c6a57cfbe_q.jpg","url":"http:\/\/\/farm8.staticflickr.com\/7010\/6762925655_4c6a57cfbe.jpg"}},{"type":"Feature","geometry":{"type":"Point","coordinates":[-74.00176,40.756619]},"properties":{"title":"The only place you can charge your phone.","marker-color":"#944120","marker-size":"small","marker-symbol":"","image":"http:\/\/\/farm7.staticflickr.com\/6171\/6247680231_75e8265839_q.jpg","url":"http:\/\/\/farm7.staticflickr.com\/6171\/6247680231_75e8265839.jpg"}},{"type":"Feature","geometry":{"type":"Point","coordinates":[-74.001288,40.756847]},"properties":{"title":"Ouch!!! That's not right, Batman. - @cyberauron","marker-color":"#944120","marker-size":"small","marker-symbol":"","image":"http:\/\/\/farm7.staticflickr.com\/6106\/6247850493_792b38c8ee_q.jpg","url":"http:\/\/\/farm7.staticflickr.com\/6106\/6247850493_792b38c8ee.jpg"}},{"type":"Feature","geometry":{"type":"Point","coordinates":[-74.001288,40.756847]},"properties":{"title":"I'm finally home after #nycc2011. This is the cheapest item I paid for at #nycc. It's only $1.00. It comes w\/pigeon, staff & wallet.","marker-color":"#944120","marker-size":"small","marker-symbol":"","image":"http:\/\/\/farm7.staticflickr.com\/6230\/6251766839_f116bcac4e_q.jpg","url":"http:\/\/\/farm7.staticflickr.com\/6230\/6251766839_f116bcac4e.jpg"}},{"type":"Feature","geometry":{"type":"Point","coordinates":[-73.977127,40.752848]},"properties":{"title":"A gathering of geeks for #CONQuest11 :)","marker-color":"#944120","marker-size":"small","marker-symbol":"","image":"http:\/\/\/farm7.staticflickr.com\/6191\/6156096307_0d04c00704_q.jpg","url":"http:\/\/\/farm7.staticflickr.com\/6191\/6156096307_0d04c00704.jpg"}},{"type":"Feature","geometry":{"type":"Point","coordinates":[-74.003532,40.756454]},"properties":{"title":"NY Comic Con","marker-color":"#944120","marker-size":"small","marker-symbol":"","image":"http:\/\/\/farm4.staticflickr.com\/3435\/3270286570_7df1b4c02c_q.jpg","url":"http:\/\/\/farm4.staticflickr.com\/3435\/3270286570_7df1b4c02c.jpg"}},{"type":"Feature","geometry":{"type":"Point","coordinates":[-74.003532,40.756454]},"properties":{"title":"NY Comic Con","marker-color":"#944120","marker-size":"small","marker-symbol":"","image":"http:\/\/\/farm4.staticflickr.com\/3395\/3270270328_d69a125448_q.jpg","url":"http:\/\/\/farm4.staticflickr.com\/3395\/3270270328_d69a125448.jpg"}},{"type":"Feature","geometry":{"type":"Point","coordinates":[-74.003532,40.756481]},"properties":{"title":"Amon @ New York Comic Con","marker-color":"#944120","marker-size":"small","marker-symbol":"","image":"http:\/\/\/farm9.staticflickr.com\/8328\/8081540584_99aba9f94d_q.jpg","url":"http:\/\/\/farm9.staticflickr.com\/8328\/8081540584_99aba9f94d.jpg"}},{"type":"Feature","geometry":{"type":"Point","coordinates":[-73.983124,40.756347]},"properties":{"title":"Day059","marker-color":"#944120","marker-size":"small","marker-symbol":"","image":"http:\/\/\/farm5.staticflickr.com\/4066\/5145259066_71e65fdd89_q.jpg","url":"http:\/\/\/farm5.staticflickr.com\/4066\/5145259066_71e65fdd89.jpg"}},{"type":"Feature","geometry":{"type":"Point","coordinates":[-74.002318,40.757083]},"properties":{"title":"The li- cro- mo- seething mass of flesh waiting on the Venture Bros. panel","marker-color":"#944120","marker-size":"small","marker-symbol":"","image":"http:\/\/\/farm3.staticflickr.com\/2135\/2430344992_7b72542e09_q.jpg","url":"http:\/\/\/farm3.staticflickr.com\/2135\/2430344992_7b72542e09.jpg"}},{"type":"Feature","geometry":{"type":"Point","coordinates":[-74.002318,40.757083]},"properties":{"title":"Never saw this armor before","marker-color":"#944120","marker-size":"small","marker-symbol":"","image":"http:\/\/\/farm3.staticflickr.com\/2011\/2429471031_47abdb66e2_q.jpg","url":"http:\/\/\/farm3.staticflickr.com\/2011\/2429471031_47abdb66e2.jpg"}},{"type":"Feature","geometry":{"type":"Point","coordinates":[-74.002318,40.757083]},"properties":{"title":"Punisher and.... honestly I don't know","marker-color":"#944120","marker-size":"small","marker-symbol":"","image":"http:\/\/\/farm3.staticflickr.com\/2300\/2430323850_d751a4944b_q.jpg","url":"http:\/\/\/farm3.staticflickr.com\/2300\/2430323850_d751a4944b.jpg"}},{"type":"Feature","geometry":{"type":"Point","coordinates":[-74.002318,40.757083]},"properties":{"title":"What a dork","marker-color":"#944120","marker-size":"small","marker-symbol":"","image":"http:\/\/\/farm3.staticflickr.com\/2300\/2430190718_280840ec08_q.jpg","url":"http:\/\/\/farm3.staticflickr.com\/2300\/2430190718_280840ec08.jpg"}},{"type":"Feature","geometry":{"type":"Point","coordinates":[-74.002318,40.757083]},"properties":{"title":"New York Comic Con 126","marker-color":"#944120","marker-size":"small","marker-symbol":"","image":"http:\/\/\/farm3.staticflickr.com\/2189\/2429387969_777320ca83_q.jpg","url":"http:\/\/\/farm3.staticflickr.com\/2189\/2429387969_777320ca83.jpg"}},{"type":"Feature","geometry":{"type":"Point","coordinates":[-74.002318,40.757083]},"properties":{"title":"Ewan McGregor?!","marker-color":"#944120","marker-size":"small","marker-symbol":"","image":"http:\/\/\/farm3.staticflickr.com\/2076\/2429452201_3ddc3c5ddf_q.jpg","url":"http:\/\/\/farm3.staticflickr.com\/2076\/2429452201_3ddc3c5ddf.jpg"}},{"type":"Feature","geometry":{"type":"Point","coordinates":[-74.002318,40.757083]},"properties":{"title":"New York Comic Con 230","marker-color":"#944120","marker-size":"small","marker-symbol":"","image":"http:\/\/\/farm3.staticflickr.com\/2090\/2430243356_5dd72d2e9f_q.jpg","url":"http:\/\/\/farm3.staticflickr.com\/2090\/2430243356_5dd72d2e9f.jpg"}},{"type":"Feature","geometry":{"type":"Point","coordinates":[-74.002318,40.757083]},"properties":{"title":"New York Comic Con 169","marker-color":"#944120","marker-size":"small","marker-symbol":"","image":"http:\/\/\/farm3.staticflickr.com\/2332\/2430221610_66bcdf32ed_q.jpg","url":"http:\/\/\/farm3.staticflickr.com\/2332\/2430221610_66bcdf32ed.jpg"}},{"type":"Feature","geometry":{"type":"Point","coordinates":[-74.002318,40.757083]},"properties":{"title":"Giant demon head statue trophy thingy","marker-color":"#944120","marker-size":"small","marker-symbol":"","image":"http:\/\/\/farm3.staticflickr.com\/2160\/2429389649_351dc85a56_q.jpg","url":"http:\/\/\/farm3.staticflickr.com\/2160\/2429389649_351dc85a56.jpg"}},{"type":"Feature","geometry":{"type":"Point","coordinates":[-74.002318,40.757083]},"properties":{"title":"COOKIE MONSTER!","marker-color":"#944120","marker-size":"small","marker-symbol":"","image":"http:\/\/\/farm3.staticflickr.com\/2026\/2430342028_b669f9777d_q.jpg","url":"http:\/\/\/farm3.staticflickr.com\/2026\/2430342028_b669f9777d.jpg"}},{"type":"Feature","geometry":{"type":"Point","coordinates":[-74.002318,40.757083]},"properties":{"title":"New York Comic Con 158","marker-color":"#944120","marker-size":"small","marker-symbol":"","image":"http:\/\/\/farm4.staticflickr.com\/3023\/2430215964_f8308f4768_q.jpg","url":"http:\/\/\/farm4.staticflickr.com\/3023\/2430215964_f8308f4768.jpg"}},{"type":"Feature","geometry":{"type":"Point","coordinates":[-74.002318,40.757083]},"properties":{"title":"New York Comic Con 141","marker-color":"#944120","marker-size":"small","marker-symbol":"","image":"http:\/\/\/farm3.staticflickr.com\/2294\/2430205218_5d80ec6042_q.jpg","url":"http:\/\/\/farm3.staticflickr.com\/2294\/2430205218_5d80ec6042.jpg"}},{"type":"Feature","geometry":{"type":"Point","coordinates":[-74.002318,40.757083]},"properties":{"title":"He's protecting your freedom","marker-color":"#944120","marker-size":"small","marker-symbol":"","image":"http:\/\/\/farm4.staticflickr.com\/3288\/2450800376_5b7606e0b3_q.jpg","url":"http:\/\/\/farm4.staticflickr.com\/3288\/2450800376_5b7606e0b3.jpg"}},{"type":"Feature","geometry":{"type":"Point","coordinates":[-74.002318,40.757083]},"properties":{"title":"Some character from some thing that wears a very strappy outfit","marker-color":"#944120","marker-size":"small","marker-symbol":"","image":"http:\/\/\/farm4.staticflickr.com\/3083\/2430302002_fafd1c9da5_q.jpg","url":"http:\/\/\/farm4.staticflickr.com\/3083\/2430302002_fafd1c9da5.jpg"}},{"type":"Feature","geometry":{"type":"Point","coordinates":[-74.002318,40.757083]},"properties":{"title":"Static Shock","marker-color":"#944120","marker-size":"small","marker-symbol":"","image":"http:\/\/\/farm3.staticflickr.com\/2166\/2429478845_1cd2a1cb13_q.jpg","url":"http:\/\/\/farm3.staticflickr.com\/2166\/2429478845_1cd2a1cb13.jpg"}},{"type":"Feature","geometry":{"type":"Point","coordinates":[-74.002318,40.757083]},"properties":{"title":"Indiana Jones","marker-color":"#944120","marker-size":"small","marker-symbol":"","image":"http:\/\/\/farm4.staticflickr.com\/3048\/2429484357_5800f45e89_q.jpg","url":"http:\/\/\/farm4.staticflickr.com\/3048\/2429484357_5800f45e89.jpg"}},{"type":"Feature","geometry":{"type":"Point","coordinates":[-74.002318,40.757083]},"properties":{"title":"The mob in the DC exhibit","marker-color":"#944120","marker-size":"small","marker-symbol":"","image":"http:\/\/\/farm4.staticflickr.com\/3291\/2450804482_6f1d4e97a9_q.jpg","url":"http:\/\/\/farm4.staticflickr.com\/3291\/2450804482_6f1d4e97a9.jpg"}},{"type":"Feature","geometry":{"type":"Point","coordinates":[-74.002318,40.757083]},"properties":{"title":"Jedis pose, officers chill","marker-color":"#944120","marker-size":"small","marker-symbol":"","image":"http:\/\/\/farm3.staticflickr.com\/2270\/2429472813_01f3eea6f4_q.jpg","url":"http:\/\/\/farm3.staticflickr.com\/2270\/2429472813_01f3eea6f4.jpg"}},{"type":"Feature","geometry":{"type":"Point","coordinates":[-74.002318,40.757083]},"properties":{"title":"The Monarch sees you.","marker-color":"#944120","marker-size":"small","marker-symbol":"","image":"http:\/\/\/farm4.staticflickr.com\/3136\/2430248740_ef6ff1b7f1_q.jpg","url":"http:\/\/\/farm4.staticflickr.com\/3136\/2430248740_ef6ff1b7f1.jpg"}},{"type":"Feature","geometry":{"type":"Point","coordinates":[-74.002318,40.757083]},"properties":{"title":"New York Comic Con 179","marker-color":"#944120","marker-size":"small","marker-symbol":"","image":"http:\/\/\/farm3.staticflickr.com\/2002\/2429412339_19704c5a41_q.jpg","url":"http:\/\/\/farm3.staticflickr.com\/2002\/2429412339_19704c5a41.jpg"}},{"type":"Feature","geometry":{"type":"Point","coordinates":[-74.002318,40.757083]},"properties":{"title":"New York Comic Con 117","marker-color":"#944120","marker-size":"small","marker-symbol":"","image":"http:\/\/\/farm4.staticflickr.com\/3173\/2429384635_902cefe5cf_q.jpg","url":"http:\/\/\/farm4.staticflickr.com\/3173\/2429384635_902cefe5cf.jpg"}},{"type":"Feature","geometry":{"type":"Point","coordinates":[-74.002318,40.757083]},"properties":{"title":"New York Comic Con 116","marker-color":"#944120","marker-size":"small","marker-symbol":"","image":"http:\/\/\/farm3.staticflickr.com\/2111\/2429383427_9c9f35309d_q.jpg","url":"http:\/\/\/farm3.staticflickr.com\/2111\/2429383427_9c9f35309d.jpg"}},{"type":"Feature","geometry":{"type":"Point","coordinates":[-74.002318,40.757083]},"properties":{"title":"New York Comic Con 239","marker-color":"#944120","marker-size":"small","marker-symbol":"","image":"http:\/\/\/farm3.staticflickr.com\/2136\/2429433519_c16147b0d4_q.jpg","url":"http:\/\/\/farm3.staticflickr.com\/2136\/2429433519_c16147b0d4.jpg"}},{"type":"Feature","geometry":{"type":"Point","coordinates":[-74.002318,40.757083]},"properties":{"title":"The Ghost","marker-color":"#944120","marker-size":"small","marker-symbol":"","image":"http:\/\/\/farm3.staticflickr.com\/2282\/2430328734_db3875fa2a_q.jpg","url":"http:\/\/\/farm3.staticflickr.com\/2282\/2430328734_db3875fa2a.jpg"}},{"type":"Feature","geometry":{"type":"Point","coordinates":[-74.002318,40.757083]},"properties":{"title":"Obi-wan Kenobi","marker-color":"#944120","marker-size":"small","marker-symbol":"","image":"http:\/\/\/farm3.staticflickr.com\/2139\/2430263132_62232b27f0_q.jpg","url":"http:\/\/\/farm3.staticflickr.com\/2139\/2430263132_62232b27f0.jpg"}},{"type":"Feature","geometry":{"type":"Point","coordinates":[-74.002318,40.757083]},"properties":{"title":"New York Comic Con 155","marker-color":"#944120","marker-size":"small","marker-symbol":"","image":"http:\/\/\/farm3.staticflickr.com\/2403\/2430210514_bbc586b3ec_q.jpg","url":"http:\/\/\/farm3.staticflickr.com\/2403\/2430210514_bbc586b3ec.jpg"}},{"type":"Feature","geometry":{"type":"Point","coordinates":[-74.002318,40.757083]},"properties":{"title":"New York Comic Con 217","marker-color":"#944120","marker-size":"small","marker-symbol":"","image":"http:\/\/\/farm3.staticflickr.com\/2263\/2430238476_57cf89546e_q.jpg","url":"http:\/\/\/farm3.staticflickr.com\/2263\/2430238476_57cf89546e.jpg"}},{"type":"Feature","geometry":{"type":"Point","coordinates":[-74.002318,40.757083]},"properties":{"title":"New York Comic Con 240","marker-color":"#944120","marker-size":"small","marker-symbol":"","image":"http:\/\/\/farm4.staticflickr.com\/3129\/2430246830_cc4bf2d3e8_q.jpg","url":"http:\/\/\/farm4.staticflickr.com\/3129\/2430246830_cc4bf2d3e8.jpg"}},{"type":"Feature","geometry":{"type":"Point","coordinates":[-74.002318,40.757083]},"properties":{"title":"New York Comic Con 176","marker-color":"#944120","marker-size":"small","marker-symbol":"","image":"http:\/\/\/farm3.staticflickr.com\/2403\/2430223266_625570d803_q.jpg","url":"http:\/\/\/farm3.staticflickr.com\/2403\/2430223266_625570d803.jpg"}},{"type":"Feature","geometry":{"type":"Point","coordinates":[-74.002318,40.757083]},"properties":{"title":"New York Comic Con 122","marker-color":"#944120","marker-size":"small","marker-symbol":"","image":"http:\/\/\/farm4.staticflickr.com\/3290\/2430198706_913b571ede_q.jpg","url":"http:\/\/\/farm4.staticflickr.com\/3290\/2430198706_913b571ede.jpg"}},{"type":"Feature","geometry":{"type":"Point","coordinates":[-74.002318,40.757083]},"properties":{"title":"Boba Fett & Princess Leia welcome you to NYCC","marker-color":"#944120","marker-size":"small","marker-symbol":"","image":"http:\/\/\/farm4.staticflickr.com\/3219\/2430180380_fdd086509b_q.jpg","url":"http:\/\/\/farm4.staticflickr.com\/3219\/2430180380_fdd086509b.jpg"}},{"type":"Feature","geometry":{"type":"Point","coordinates":[-74.002318,40.757083]},"properties":{"title":"New York Comic Con 094","marker-color":"#944120","marker-size":"small","marker-symbol":"","image":"http:\/\/\/farm4.staticflickr.com\/3135\/2429375165_fa8dccb29b_q.jpg","url":"http:\/\/\/farm4.staticflickr.com\/3135\/2429375165_fa8dccb29b.jpg"}},{"type":"Feature","geometry":{"type":"Point","coordinates":[-74.002318,40.757083]},"properties":{"title":"New York Comic Con 186","marker-color":"#944120","marker-size":"small","marker-symbol":"","image":"http:\/\/\/farm4.staticflickr.com\/3094\/2430232808_aaf1fcf335_q.jpg","url":"http:\/\/\/farm4.staticflickr.com\/3094\/2430232808_aaf1fcf335.jpg"}},{"type":"Feature","geometry":{"type":"Point","coordinates":[-74.002318,40.757083]},"properties":{"title":"New York Comic Con 100","marker-color":"#944120","marker-size":"small","marker-symbol":"","image":"http:\/\/\/farm4.staticflickr.com\/3161\/2429376627_c4195bba0f_q.jpg","url":"http:\/\/\/farm4.staticflickr.com\/3161\/2429376627_c4195bba0f.jpg"}},{"type":"Feature","geometry":{"type":"Point","coordinates":[-74.002318,40.757083]},"properties":{"title":"Licker on mah Flickr","marker-color":"#944120","marker-size":"small","marker-symbol":"","image":"http:\/\/\/farm4.staticflickr.com\/3120\/2429372637_ebb17ca8ef_q.jpg","url":"http:\/\/\/farm4.staticflickr.com\/3120\/2429372637_ebb17ca8ef.jpg"}},{"type":"Feature","geometry":{"type":"Point","coordinates":[-74.002318,40.757083]},"properties":{"title":"Not as clumsy or random as a blaster","marker-color":"#944120","marker-size":"small","marker-symbol":"","image":"http:\/\/\/farm4.staticflickr.com\/3283\/2450806256_a3ef76c6b5_q.jpg","url":"http:\/\/\/farm4.staticflickr.com\/3283\/2450806256_a3ef76c6b5.jpg"}},{"type":"Feature","geometry":{"type":"Point","coordinates":[-74.002318,40.757083]},"properties":{"title":"Indiana Jones","marker-color":"#944120","marker-size":"small","marker-symbol":"","image":"http:\/\/\/farm4.staticflickr.com\/3239\/2430298588_ab11ca8ebb_q.jpg","url":"http:\/\/\/farm4.staticflickr.com\/3239\/2430298588_ab11ca8ebb.jpg"}},{"type":"Feature","geometry":{"type":"Point","coordinates":[-74.002318,40.757083]},"properties":{"title":"The Punisher and his smiling friend in white","marker-color":"#944120","marker-size":"small","marker-symbol":"","image":"http:\/\/\/farm3.staticflickr.com\/2278\/2430322304_9a77aaf184_q.jpg","url":"http:\/\/\/farm3.staticflickr.com\/2278\/2430322304_9a77aaf184.jpg"}},{"type":"Feature","geometry":{"type":"Point","coordinates":[-74.002318,40.757083]},"properties":{"title":"New York Comic Con 183","marker-color":"#944120","marker-size":"small","marker-symbol":"","image":"http:\/\/\/farm3.staticflickr.com\/2194\/2429416129_aa87166e46_q.jpg","url":"http:\/\/\/farm3.staticflickr.com\/2194\/2429416129_aa87166e46.jpg"}},{"type":"Feature","geometry":{"type":"Point","coordinates":[-74.002318,40.757083]},"properties":{"title":"Cinna-buns statue","marker-color":"#944120","marker-size":"small","marker-symbol":"","image":"http:\/\/\/farm3.staticflickr.com\/2086\/2430203574_e3138d61aa_q.jpg","url":"http:\/\/\/farm3.staticflickr.com\/2086\/2430203574_e3138d61aa.jpg"}},{"type":"Feature","geometry":{"type":"Point","coordinates":[-74.002318,40.757083]},"properties":{"title":"Wolverine and Ice-man","marker-color":"#944120","marker-size":"small","marker-symbol":"","image":"http:\/\/\/farm3.staticflickr.com\/2083\/2429528361_64c2a7f0da_q.jpg","url":"http:\/\/\/farm3.staticflickr.com\/2083\/2429528361_64c2a7f0da.jpg"}},{"type":"Feature","geometry":{"type":"Point","coordinates":[-74.002318,40.757083]},"properties":{"title":"Cobra Commander","marker-color":"#944120","marker-size":"small","marker-symbol":"","image":"http:\/\/\/farm3.staticflickr.com\/2056\/2430306020_3f27755bb0_q.jpg","url":"http:\/\/\/farm3.staticflickr.com\/2056\/2430306020_3f27755bb0.jpg"}},{"type":"Feature","geometry":{"type":"Point","coordinates":[-74.002318,40.757083]},"properties":{"title":"New York Comic Con 218","marker-color":"#944120","marker-size":"small","marker-symbol":"","image":"http:\/\/\/farm4.staticflickr.com\/3191\/2430240234_db100deeda_q.jpg","url":"http:\/\/\/farm4.staticflickr.com\/3191\/2430240234_db100deeda.jpg"}},{"type":"Feature","geometry":{"type":"Point","coordinates":[-74.002318,40.757083]},"properties":{"title":"Clone Trooper","marker-color":"#944120","marker-size":"small","marker-symbol":"","image":"http:\/\/\/farm3.staticflickr.com\/2235\/2429467271_8b45189a16_q.jpg","url":"http:\/\/\/farm3.staticflickr.com\/2235\/2429467271_8b45189a16.jpg"}},{"type":"Feature","geometry":{"type":"Point","coordinates":[-74.002318,40.757083]},"properties":{"title":"New York Comic Con 167","marker-color":"#944120","marker-size":"small","marker-symbol":"","image":"http:\/\/\/farm4.staticflickr.com\/3126\/2429407203_f73d999f28_q.jpg","url":"http:\/\/\/farm4.staticflickr.com\/3126\/2429407203_f73d999f28.jpg"}},{"type":"Feature","geometry":{"type":"Point","coordinates":[-74.002318,40.757083]},"properties":{"title":"New York Comic Con 187","marker-color":"#944120","marker-size":"small","marker-symbol":"","image":"http:\/\/\/farm4.staticflickr.com\/3191\/2429421991_013369ffbb_q.jpg","url":"http:\/\/\/farm4.staticflickr.com\/3191\/2429421991_013369ffbb.jpg"}},{"type":"Feature","geometry":{"type":"Point","coordinates":[-74.002318,40.757083]},"properties":{"title":"New York Comic Con 235","marker-color":"#944120","marker-size":"small","marker-symbol":"","image":"http:\/\/\/farm3.staticflickr.com\/2203\/2430245104_3ee533a7ea_q.jpg","url":"http:\/\/\/farm3.staticflickr.com\/2203\/2430245104_3ee533a7ea.jpg"}},{"type":"Feature","geometry":{"type":"Point","coordinates":[-74.002318,40.757083]},"properties":{"title":"The Monarch and Doctor Girlfriend","marker-color":"#944120","marker-size":"small","marker-symbol":"","image":"http:\/\/\/farm3.staticflickr.com\/2034\/2429439917_ce4012c7e6_q.jpg","url":"http:\/\/\/farm3.staticflickr.com\/2034\/2429439917_ce4012c7e6.jpg"}},{"type":"Feature","geometry":{"type":"Point","coordinates":[-74.002318,40.757083]},"properties":{"title":"Stoic","marker-color":"#944120","marker-size":"small","marker-symbol":"","image":"http:\/\/\/farm3.staticflickr.com\/2298\/2449975711_8cb4a951e8_q.jpg","url":"http:\/\/\/farm3.staticflickr.com\/2298\/2449975711_8cb4a951e8.jpg"}},{"type":"Feature","geometry":{"type":"Point","coordinates":[-74.002318,40.757083]},"properties":{"title":"New York Comic Con 185","marker-color":"#944120","marker-size":"small","marker-symbol":"","image":"http:\/\/\/farm3.staticflickr.com\/2062\/2429417899_5995645d05_q.jpg","url":"http:\/\/\/farm3.staticflickr.com\/2062\/2429417899_5995645d05.jpg"}},{"type":"Feature","geometry":{"type":"Point","coordinates":[-74.002318,40.757083]},"properties":{"title":"New York Comic Con 147","marker-color":"#944120","marker-size":"small","marker-symbol":"","image":"http:\/\/\/farm3.staticflickr.com\/2284\/2429394405_a38e9d4b85_q.jpg","url":"http:\/\/\/farm3.staticflickr.com\/2284\/2429394405_a38e9d4b85.jpg"}},{"type":"Feature","geometry":{"type":"Point","coordinates":[-74.002318,40.757083]},"properties":{"title":"C3-PO","marker-color":"#944120","marker-size":"small","marker-symbol":"","image":"http:\/\/\/farm3.staticflickr.com\/2077\/2429504691_cef66ac6e5_q.jpg","url":"http:\/\/\/farm3.staticflickr.com\/2077\/2429504691_cef66ac6e5.jpg"}},{"type":"Feature","geometry":{"type":"Point","coordinates":[-74.002318,40.757083]},"properties":{"title":"New York Comic Con 157","marker-color":"#944120","marker-size":"small","marker-symbol":"","image":"http:\/\/\/farm4.staticflickr.com\/3077\/2429401537_87f22fd437_q.jpg","url":"http:\/\/\/farm4.staticflickr.com\/3077\/2429401537_87f22fd437.jpg"}},{"type":"Feature","geometry":{"type":"Point","coordinates":[-74.002318,40.757083]},"properties":{"title":"COME AND TAKE THEM!","marker-color":"#944120","marker-size":"small","marker-symbol":"","image":"http:\/\/\/farm4.staticflickr.com\/3064\/2430343528_1c2efe4699_q.jpg","url":"http:\/\/\/farm4.staticflickr.com\/3064\/2430343528_1c2efe4699.jpg"}},{"type":"Feature","geometry":{"type":"Point","coordinates":[-74.002318,40.757083]},"properties":{"title":"Sailor Scouts","marker-color":"#944120","marker-size":"small","marker-symbol":"","image":"http:\/\/\/farm3.staticflickr.com\/2297\/2430318952_20b5c1cafe_q.jpg","url":"http:\/\/\/farm3.staticflickr.com\/2297\/2430318952_20b5c1cafe.jpg"}},{"type":"Feature","geometry":{"type":"Point","coordinates":[-74.002318,40.757083]},"properties":{"title":"Character whose name I forgot.","marker-color":"#944120","marker-size":"small","marker-symbol":"","image":"http:\/\/\/farm4.staticflickr.com\/3086\/2429524835_78e37b5e08_q.jpg","url":"http:\/\/\/farm4.staticflickr.com\/3086\/2429524835_78e37b5e08.jpg"}},{"type":"Feature","geometry":{"type":"Point","coordinates":[-74.002318,40.757083]},"properties":{"title":"New York Comic Con 181","marker-color":"#944120","marker-size":"small","marker-symbol":"","image":"http:\/\/\/farm3.staticflickr.com\/2289\/2430226518_bc6fa52bab_q.jpg","url":"http:\/\/\/farm3.staticflickr.com\/2289\/2430226518_bc6fa52bab.jpg"}},{"type":"Feature","geometry":{"type":"Point","coordinates":[-74.002318,40.757083]},"properties":{"title":"DRINK YA SCHOOL, STAY IN DRUGS, DON'T DO MILK","marker-color":"#944120","marker-size":"small","marker-symbol":"","image":"http:\/\/\/farm3.staticflickr.com\/2373\/2430330614_f49a3cbcdf_q.jpg","url":"http:\/\/\/farm3.staticflickr.com\/2373\/2430330614_f49a3cbcdf.jpg"}},{"type":"Feature","geometry":{"type":"Point","coordinates":[-74.002318,40.757083]},"properties":{"title":"MC Frontalot","marker-color":"#944120","marker-size":"small","marker-symbol":"","image":"http:\/\/\/farm3.staticflickr.com\/2344\/2429381561_f33c2e7d06_q.jpg","url":"http:\/\/\/farm3.staticflickr.com\/2344\/2429381561_f33c2e7d06.jpg"}},{"type":"Feature","geometry":{"type":"Point","coordinates":[-74.002318,40.757083]},"properties":{"title":"New York Comic Con 163","marker-color":"#944120","marker-size":"small","marker-symbol":"","image":"http:\/\/\/farm4.staticflickr.com\/3279\/2430218058_5c81ee3ab1_q.jpg","url":"http:\/\/\/farm4.staticflickr.com\/3279\/2430218058_5c81ee3ab1.jpg"}},{"type":"Feature","geometry":{"type":"Point","coordinates":[-74.002318,40.757083]},"properties":{"title":"Cobra Commander...","marker-color":"#944120","marker-size":"small","marker-symbol":"","image":"http:\/\/\/farm4.staticflickr.com\/3059\/2429495441_9482169f8d_q.jpg","url":"http:\/\/\/farm4.staticflickr.com\/3059\/2429495441_9482169f8d.jpg"}},{"type":"Feature","geometry":{"type":"Point","coordinates":[-74.002318,40.757083]},"properties":{"title":"The Monarch and Doctor Girlfriend","marker-color":"#944120","marker-size":"small","marker-symbol":"","image":"http:\/\/\/farm3.staticflickr.com\/2354\/2430250620_827d81e269_q.jpg","url":"http:\/\/\/farm3.staticflickr.com\/2354\/2430250620_827d81e269.jpg"}},{"type":"Feature","geometry":{"type":"Point","coordinates":[-74.000355,40.757903]},"properties":{"title":"Chewbacca NYCC 2012","marker-color":"#944120","marker-size":"small","marker-symbol":"","image":"http:\/\/\/farm9.staticflickr.com\/8048\/8094161703_3b3e4d74e3_q.jpg","url":"http:\/\/\/farm9.staticflickr.com\/8048\/8094161703_3b3e4d74e3.jpg"}},{"type":"Feature","geometry":{"type":"Point","coordinates":[-74.001374,40.758082]},"properties":{"title":"Chad Vader being interviewed by Geek Beat TV at BWENY 2012","marker-color":"#944120","marker-size":"small","marker-symbol":"","image":"http:\/\/\/farm9.staticflickr.com\/8021\/7183103773_e3eeb4a8dd_q.jpg","url":"http:\/\/\/farm9.staticflickr.com\/8021\/7183103773_e3eeb4a8dd.jpg"}},{"type":"Feature","geometry":{"type":"Point","coordinates":[-74.01449,40.708531]},"properties":{"title":"Sinatra Party - 5","marker-color":"#944120","marker-size":"small","marker-symbol":"","image":"http:\/\/\/farm1.staticflickr.com\/21\/24351674_08fa33da6d_q.jpg","url":"http:\/\/\/farm1.staticflickr.com\/21\/24351674_08fa33da6d.jpg"}},{"type":"Feature","geometry":{"type":"Point","coordinates":[-73.979326,40.759041]},"properties":{"title":"DSC00809","marker-color":"#944120","marker-size":"small","marker-symbol":"","image":"http:\/\/\/farm5.staticflickr.com\/4131\/4981735171_5443d046c9_q.jpg","url":"http:\/\/\/farm5.staticflickr.com\/4131\/4981735171_5443d046c9.jpg"}},{"type":"Feature","geometry":{"type":"Point","coordinates":[-73.984873,40.697998]},"properties":{"title":"SML Books \/ 20090903.10D.52432 \/ SML","marker-color":"#944120","marker-size":"small","marker-symbol":"","image":"http:\/\/\/farm4.staticflickr.com\/3447\/3882921053_7b0de88b7c_q.jpg","url":"http:\/\/\/farm4.staticflickr.com\/3447\/3882921053_7b0de88b7c.jpg"}},{"type":"Feature","geometry":{"type":"Point","coordinates":[-73.984873,40.697998]},"properties":{"title":"Spezify: SML \/ 2009-11-30 \/ SML Screenshots","marker-color":"#944120","marker-size":"small","marker-symbol":"","image":"http:\/\/\/farm3.staticflickr.com\/2759\/4148066449_38057eb923_q.jpg","url":"http:\/\/\/farm3.staticflickr.com\/2759\/4148066449_38057eb923.jpg"}},{"type":"Feature","geometry":{"type":"Point","coordinates":[-73.984873,40.697998]},"properties":{"title":"Spezify: See-ming Lee \/ 2009-11-30 \/ SML Screenshots","marker-color":"#944120","marker-size":"small","marker-symbol":"","image":"http:\/\/\/farm3.staticflickr.com\/2644\/4148064629_05c0dd6851_q.jpg","url":"http:\/\/\/farm3.staticflickr.com\/2644\/4148064629_05c0dd6851.jpg"}},{"type":"Feature","geometry":{"type":"Point","coordinates":[-73.984873,40.697998]},"properties":{"title":"Spezify: CrazyIsGood \/ 2009-11-30 \/ SML Screenshots","marker-color":"#944120","marker-size":"small","marker-symbol":"","image":"http:\/\/\/farm3.staticflickr.com\/2787\/4148084873_4cc9268c10_q.jpg","url":"http:\/\/\/farm3.staticflickr.com\/2787\/4148084873_4cc9268c10.jpg"}},{"type":"Feature","geometry":{"type":"Point","coordinates":[-74.013165,40.702895]},"properties":{"title":"memory #geek #tech","marker-color":"#944120","marker-size":"small","marker-symbol":"","image":"http:\/\/\/farm9.staticflickr.com\/8499\/8343882248_08021e995c_q.jpg","url":"http:\/\/\/farm9.staticflickr.com\/8499\/8343882248_08021e995c.jpg"}},{"type":"Feature","geometry":{"type":"Point","coordinates":[-74.018121,40.707238]},"properties":{"title":"assimilation","marker-color":"#944120","marker-size":"small","marker-symbol":"","image":"http:\/\/\/farm2.staticflickr.com\/1015\/1077569559_8e0bcc856a_q.jpg","url":"http:\/\/\/farm2.staticflickr.com\/1015\/1077569559_8e0bcc856a.jpg"}},{"type":"Feature","geometry":{"type":"Point","coordinates":[-73.975062,40.758922]},"properties":{"title":"","marker-color":"#944120","marker-size":"small","marker-symbol":"","image":"http:\/\/\/farm6.staticflickr.com\/5004\/5295032504_0e2b024acd_q.jpg","url":"http:\/\/\/farm6.staticflickr.com\/5004\/5295032504_0e2b024acd.jpg"}},{"type":"Feature","geometry":{"type":"Point","coordinates":[-73.971312,40.763178]},"properties":{"title":"MEWShop - Inside The Cutting Room - 20130608-125205","marker-color":"#944120","marker-size":"small","marker-symbol":"","image":"http:\/\/\/farm9.staticflickr.com\/8128\/9015733389_a47d4902cd_q.jpg","url":"http:\/\/\/farm9.staticflickr.com\/8128\/9015733389_a47d4902cd.jpg"}},{"type":"Feature","geometry":{"type":"Point","coordinates":[-73.971312,40.763178]},"properties":{"title":"MEWShop - Inside The Cutting Room - 20130608-124735","marker-color":"#944120","marker-size":"small","marker-symbol":"","image":"http:\/\/\/farm8.staticflickr.com\/7350\/9016923970_c9c9016c61_q.jpg","url":"http:\/\/\/farm8.staticflickr.com\/7350\/9016923970_c9c9016c61.jpg"}},{"type":"Feature","geometry":{"type":"Point","coordinates":[-73.971312,40.763178]},"properties":{"title":"MEWShop - Inside The Cutting Room - 20130608-182116","marker-color":"#944120","marker-size":"small","marker-symbol":"","image":"http:\/\/\/farm3.staticflickr.com\/2817\/9015734701_5c0bcde8a4_q.jpg","url":"http:\/\/\/farm3.staticflickr.com\/2817\/9015734701_5c0bcde8a4.jpg"}},{"type":"Feature","geometry":{"type":"Point","coordinates":[-73.971312,40.763178]},"properties":{"title":"MEWShop - Inside The Cutting Room - 20130608-125640","marker-color":"#944120","marker-size":"small","marker-symbol":"","image":"http:\/\/\/farm8.staticflickr.com\/7418\/9016925342_2e7523704d_q.jpg","url":"http:\/\/\/farm8.staticflickr.com\/7418\/9016925342_2e7523704d.jpg"}},{"type":"Feature","geometry":{"type":"Point","coordinates":[-73.971312,40.763178]},"properties":{"title":"MEWShop - Inside The Cutting Room - 20130608-125148","marker-color":"#944120","marker-size":"small","marker-symbol":"","image":"http:\/\/\/farm9.staticflickr.com\/8396\/9016924424_9171e2a3e0_q.jpg","url":"http:\/\/\/farm9.staticflickr.com\/8396\/9016924424_9171e2a3e0.jpg"}},{"type":"Feature","geometry":{"type":"Point","coordinates":[-73.971312,40.763178]},"properties":{"title":"MEWShop - Inside The Cutting Room - 20130608-182103","marker-color":"#944120","marker-size":"small","marker-symbol":"","image":"http:\/\/\/farm6.staticflickr.com\/5327\/9015734385_35dc14311d_q.jpg","url":"http:\/\/\/farm6.staticflickr.com\/5327\/9015734385_35dc14311d.jpg"}},{"type":"Feature","geometry":{"type":"Point","coordinates":[-73.971312,40.763178]},"properties":{"title":"MEWShop - Inside The Cutting Room - 20130608-182135","marker-color":"#944120","marker-size":"small","marker-symbol":"","image":"http:\/\/\/farm4.staticflickr.com\/3773\/9016926044_46410281e8_q.jpg","url":"http:\/\/\/farm4.staticflickr.com\/3773\/9016926044_46410281e8.jpg"}},{"type":"Feature","geometry":{"type":"Point","coordinates":[-73.971312,40.763178]},"properties":{"title":"MEWShop - Inside The Cutting Room - 20130608-125136","marker-color":"#944120","marker-size":"small","marker-symbol":"","image":"http:\/\/\/farm9.staticflickr.com\/8114\/9016924320_c29932a213_q.jpg","url":"http:\/\/\/farm9.staticflickr.com\/8114\/9016924320_c29932a213.jpg"}},{"type":"Feature","geometry":{"type":"Point","coordinates":[-73.971312,40.763178]},"properties":{"title":"MEWShop - Inside The Cutting Room - 20130608-125616","marker-color":"#944120","marker-size":"small","marker-symbol":"","image":"http:\/\/\/farm8.staticflickr.com\/7327\/9016924870_0b6386374d_q.jpg","url":"http:\/\/\/farm8.staticflickr.com\/7327\/9016924870_0b6386374d.jpg"}},{"type":"Feature","geometry":{"type":"Point","coordinates":[-73.971312,40.763178]},"properties":{"title":"MEWShop - Inside The Cutting Room - 20130608-125254","marker-color":"#944120","marker-size":"small","marker-symbol":"","image":"http:\/\/\/farm9.staticflickr.com\/8135\/9015733605_a3c855b7e1_q.jpg","url":"http:\/\/\/farm9.staticflickr.com\/8135\/9015733605_a3c855b7e1.jpg"}},{"type":"Feature","geometry":{"type":"Point","coordinates":[-73.971312,40.763178]},"properties":{"title":"MEWShop - Inside The Cutting Room - 20130608-125231","marker-color":"#944120","marker-size":"small","marker-symbol":"","image":"http:\/\/\/farm8.staticflickr.com\/7322\/9016924642_b1ac572fb0_q.jpg","url":"http:\/\/\/farm8.staticflickr.com\/7322\/9016924642_b1ac572fb0.jpg"}},{"type":"Feature","geometry":{"type":"Point","coordinates":[-73.971312,40.763178]},"properties":{"title":"MEWShop - Inside The Cutting Room - 20130608-182302","marker-color":"#944120","marker-size":"small","marker-symbol":"","image":"http:\/\/\/farm8.staticflickr.com\/7353\/9016926618_99bf95ccf8_q.jpg","url":"http:\/\/\/farm8.staticflickr.com\/7353\/9016926618_99bf95ccf8.jpg"}},{"type":"Feature","geometry":{"type":"Point","coordinates":[-73.971312,40.763178]},"properties":{"title":"MEWShop - Inside The Cutting Room - 20130608-125638","marker-color":"#944120","marker-size":"small","marker-symbol":"","image":"http:\/\/\/farm4.staticflickr.com\/3677\/9015733983_e5b2a25f03_q.jpg","url":"http:\/\/\/farm4.staticflickr.com\/3677\/9015733983_e5b2a25f03.jpg"}},{"type":"Feature","geometry":{"type":"Point","coordinates":[-73.971312,40.763178]},"properties":{"title":"MEWShop - Inside The Cutting Room - 20130608-182506","marker-color":"#944120","marker-size":"small","marker-symbol":"","image":"http:\/\/\/farm8.staticflickr.com\/7354\/9015735741_e336fc2fd3_q.jpg","url":"http:\/\/\/farm8.staticflickr.com\/7354\/9015735741_e336fc2fd3.jpg"}},{"type":"Feature","geometry":{"type":"Point","coordinates":[-73.971312,40.763178]},"properties":{"title":"MEWShop - Inside The Cutting Room - 20130608-182243","marker-color":"#944120","marker-size":"small","marker-symbol":"","image":"http:\/\/\/farm4.staticflickr.com\/3789\/9016926342_9d9a4a512a_q.jpg","url":"http:\/\/\/farm4.staticflickr.com\/3789\/9016926342_9d9a4a512a.jpg"}},{"type":"Feature","geometry":{"type":"Point","coordinates":[-73.971312,40.763178]},"properties":{"title":"MEWShop - Inside The Cutting Room - 20130608-182249","marker-color":"#944120","marker-size":"small","marker-symbol":"","image":"http:\/\/\/farm9.staticflickr.com\/8558\/9015735449_387da2850c_q.jpg","url":"http:\/\/\/farm9.staticflickr.com\/8558\/9015735449_387da2850c.jpg"}},{"type":"Feature","geometry":{"type":"Point","coordinates":[-73.971312,40.763178]},"properties":{"title":"MEWShop - Inside The Cutting Room - 20130608-125122","marker-color":"#944120","marker-size":"small","marker-symbol":"","image":"http:\/\/\/farm8.staticflickr.com\/7423\/9016924198_1e6a691f15_q.jpg","url":"http:\/\/\/farm8.staticflickr.com\/7423\/9016924198_1e6a691f15.jpg"}},{"type":"Feature","geometry":{"type":"Point","coordinates":[-73.971312,40.763178]},"properties":{"title":"MEWShop - Inside The Cutting Room - 20130608-182522","marker-color":"#944120","marker-size":"small","marker-symbol":"","image":"http:\/\/\/farm6.staticflickr.com\/5333\/9015735867_08ca591135_q.jpg","url":"http:\/\/\/farm6.staticflickr.com\/5333\/9015735867_08ca591135.jpg"}},{"type":"Feature","geometry":{"type":"Point","coordinates":[-73.971312,40.763178]},