{"type":"FeatureCollection","features":[{"type":"Feature","geometry":{"type":"Point","coordinates":[-73.996454,40.732321]},"properties":{"title":"#Organic #Brunch","marker-color":"#cd9455","marker-size":"small","marker-symbol":"circle","image":"http:\/\/\/farm9.staticflickr.com\/8172\/7972147632_7ec447be82_q.jpg","url":"http:\/\/\/farm9.staticflickr.com\/8172\/7972147632_7ec447be82.jpg"}},{"type":"Feature","geometry":{"type":"Point","coordinates":[-73.9975,40.729833]},"properties":{"title":"radiolab live","marker-color":"#cd9455","marker-size":"small","marker-symbol":"circle","image":"http:\/\/\/farm6.staticflickr.com\/5174\/5528126148_19cfc39ff9_q.jpg","url":"http:\/\/\/farm6.staticflickr.com\/5174\/5528126148_19cfc39ff9.jpg"}},{"type":"Feature","geometry":{"type":"Point","coordinates":[-73.99727,40.731145]},"properties":{"title":"Painting New York ... with sand by Joe Mangrum","marker-color":"#cd9455","marker-size":"small","marker-symbol":"circle","image":"http:\/\/\/farm5.staticflickr.com\/4093\/4755453740_3914aab3c8_q.jpg","url":"http:\/\/\/farm5.staticflickr.com\/4093\/4755453740_3914aab3c8.jpg"}},{"type":"Feature","geometry":{"type":"Point","coordinates":[-73.9885,40.730333]},"properties":{"title":"Culture Espresso, W 38th St","marker-color":"#cd9455","marker-size":"small","marker-symbol":"circle","image":"http:\/\/\/farm6.staticflickr.com\/5169\/5283724720_a867fba12a_q.jpg","url":"http:\/\/\/farm6.staticflickr.com\/5169\/5283724720_a867fba12a.jpg"}},{"type":"Feature","geometry":{"type":"Point","coordinates":[-73.99838,40.73295]},"properties":{"title":"Liquid Tribal: at Church Sep 28th, Club Love, NYC","marker-color":"#cd9455","marker-size":"small","marker-symbol":"circle","image":"http:\/\/\/farm4.staticflickr.com\/3296\/3027446311_6c30f4205b_q.jpg","url":"http:\/\/\/farm4.staticflickr.com\/3296\/3027446311_6c30f4205b.jpg"}},{"type":"Feature","geometry":{"type":"Point","coordinates":[-73.99838,40.73295]},"properties":{"title":"Liquid Tribal: at Church Sep 28th, Club Love, NYC","marker-color":"#cd9455","marker-size":"small","marker-symbol":"circle","image":"http:\/\/\/farm4.staticflickr.com\/3153\/3028282630_8021f4a74c_q.jpg","url":"http:\/\/\/farm4.staticflickr.com\/3153\/3028282630_8021f4a74c.jpg"}},{"type":"Feature","geometry":{"type":"Point","coordinates":[-73.993869,40.735655]},"properties":{"title":"Stuffed portobello. Health food can be good. Parsnip, fig, sweet potato, cashews on top of a grilled mushroom. #eatright #healthyfood #cleanplates #nyc #paleo #grainfree #glutenfree #organic #vegan #conciouscarnivore #vegitarian","marker-color":"#cd9455","marker-size":"small","marker-symbol":"circle","image":"http:\/\/\/farm9.staticflickr.com\/8094\/8543631930_5f4f12dba3_q.jpg","url":"http:\/\/\/farm9.staticflickr.com\/8094\/8543631930_5f4f12dba3.jpg"}},{"type":"Feature","geometry":{"type":"Point","coordinates":[-73.990892,40.735053]},"properties":{"title":"\"DON'T PANIC, IT'S ORGANIC! LEGALIZE NOW, FREE THE WEED\" - Cannabis March NYC","marker-color":"#cd9455","marker-size":"small","marker-symbol":"circle","image":"http:\/\/\/farm6.staticflickr.com\/5442\/7147374057_1fc9f248a7_q.jpg","url":"http:\/\/\/farm6.staticflickr.com\/5442\/7147374057_1fc9f248a7.jpg"}},{"type":"Feature","geometry":{"type":"Point","coordinates":[-73.99072,40.724189]},"properties":{"title":"Lunch October 17, 2008","marker-color":"#cd9455","marker-size":"small","marker-symbol":"circle","image":"http:\/\/\/farm4.staticflickr.com\/3005\/2947979065_a69117f827_q.jpg","url":"http:\/\/\/farm4.staticflickr.com\/3005\/2947979065_a69117f827.jpg"}},{"type":"Feature","geometry":{"type":"Point","coordinates":[-73.99072,40.724189]},"properties":{"title":"Dinner June 19, 2008","marker-color":"#cd9455","marker-size":"small","marker-symbol":"circle","image":"http:\/\/\/farm4.staticflickr.com\/3193\/2606599588_7a87ed9424_q.jpg","url":"http:\/\/\/farm4.staticflickr.com\/3193\/2606599588_7a87ed9424.jpg"}},{"type":"Feature","geometry":{"type":"Point","coordinates":[-73.99072,40.724189]},"properties":{"title":"Dinner June 23, 2008","marker-color":"#cd9455","marker-size":"small","marker-symbol":"circle","image":"http:\/\/\/farm4.staticflickr.com\/3143\/2606609636_ae4be63b04_q.jpg","url":"http:\/\/\/farm4.staticflickr.com\/3143\/2606609636_ae4be63b04.jpg"}},{"type":"Feature","geometry":{"type":"Point","coordinates":[-73.99072,40.724189]},"properties":{"title":"Dinner June 6, 2008","marker-color":"#cd9455","marker-size":"small","marker-symbol":"circle","image":"http:\/\/\/farm4.staticflickr.com\/3279\/2559133177_aac541828f_q.jpg","url":"http:\/\/\/farm4.staticflickr.com\/3279\/2559133177_aac541828f.jpg"}},{"type":"Feature","geometry":{"type":"Point","coordinates":[-73.99072,40.724189]},"properties":{"title":"Dinner June 23, 2008","marker-color":"#cd9455","marker-size":"small","marker-symbol":"circle","image":"http:\/\/\/farm4.staticflickr.com\/3232\/2606621568_54ed8a87e6_q.jpg","url":"http:\/\/\/farm4.staticflickr.com\/3232\/2606621568_54ed8a87e6.jpg"}},{"type":"Feature","geometry":{"type":"Point","coordinates":[-73.99072,40.724189]},"properties":{"title":"Dinner June 15, 2008","marker-color":"#cd9455","marker-size":"small","marker-symbol":"circle","image":"http:\/\/\/farm4.staticflickr.com\/3103\/2583270219_2141685c23_q.jpg","url":"http:\/\/\/farm4.staticflickr.com\/3103\/2583270219_2141685c23.jpg"}},{"type":"Feature","geometry":{"type":"Point","coordinates":[-73.99072,40.724189]},"properties":{"title":"Lunch October 14, 2008","marker-color":"#cd9455","marker-size":"small","marker-symbol":"circle","image":"http:\/\/\/farm4.staticflickr.com\/3016\/2940840590_9f794cbd23_q.jpg","url":"http:\/\/\/farm4.staticflickr.com\/3016\/2940840590_9f794cbd23.jpg"}},{"type":"Feature","geometry":{"type":"Point","coordinates":[-73.990607,40.724038]},"properties":{"title":"Dinner May 22, 2008","marker-color":"#cd9455","marker-size":"small","marker-symbol":"circle","image":"http:\/\/\/farm3.staticflickr.com\/2370\/2515620272_0898e0dafa_q.jpg","url":"http:\/\/\/farm3.staticflickr.com\/2370\/2515620272_0898e0dafa.jpg"}},{"type":"Feature","geometry":{"type":"Point","coordinates":[-73.990607,40.724038]},"properties":{"title":"Dinner May 22, 2008","marker-color":"#cd9455","marker-size":"small","marker-symbol":"circle","image":"http:\/\/\/farm3.staticflickr.com\/2139\/2514793245_107edd9212_q.jpg","url":"http:\/\/\/farm3.staticflickr.com\/2139\/2514793245_107edd9212.jpg"}},{"type":"Feature","geometry":{"type":"Point","coordinates":[-73.987166,40.73]},"properties":{"title":"Vegan ice cream","marker-color":"#cd9455","marker-size":"small","marker-symbol":"circle","image":"http:\/\/\/farm8.staticflickr.com\/7227\/7247360688_6c9ebea113_q.jpg","url":"http:\/\/\/farm8.staticflickr.com\/7227\/7247360688_6c9ebea113.jpg"}},{"type":"Feature","geometry":{"type":"Point","coordinates":[-73.990833,40.73611]},"properties":{"title":"Joe Mangrum Sand Mandala","marker-color":"#cd9455","marker-size":"small","marker-symbol":"circle","image":"http:\/\/\/farm5.staticflickr.com\/4001\/5157353684_45d588f30e_q.jpg","url":"http:\/\/\/farm5.staticflickr.com\/4001\/5157353684_45d588f30e.jpg"}},{"type":"Feature","geometry":{"type":"Point","coordinates":[-73.990475,40.73643]},"properties":{"title":"The Union Building","marker-color":"#cd9455","marker-size":"small","marker-symbol":"circle","image":"http:\/\/\/farm3.staticflickr.com\/2157\/5765111940_b1de7550d7_q.jpg","url":"http:\/\/\/farm3.staticflickr.com\/2157\/5765111940_b1de7550d7.jpg"}},{"type":"Feature","geometry":{"type":"Point","coordinates":[-73.990475,40.73643]},"properties":{"title":"The Union Building","marker-color":"#cd9455","marker-size":"small","marker-symbol":"circle","image":"http:\/\/\/farm3.staticflickr.com\/2557\/5764554507_26178061e9_q.jpg","url":"http:\/\/\/farm3.staticflickr.com\/2557\/5764554507_26178061e9.jpg"}},{"type":"Feature","geometry":{"type":"Point","coordinates":[-73.990475,40.73643]},"properties":{"title":"The Union Building","marker-color":"#cd9455","marker-size":"small","marker-symbol":"circle","image":"http:\/\/\/farm4.staticflickr.com\/3085\/5764566651_2c68facdbe_q.jpg","url":"http:\/\/\/farm4.staticflickr.com\/3085\/5764566651_2c68facdbe.jpg"}},{"type":"Feature","geometry":{"type":"Point","coordinates":[-73.990475,40.73643]},"properties":{"title":"The Union Building","marker-color":"#cd9455","marker-size":"small","marker-symbol":"circle","image":"http:\/\/\/farm6.staticflickr.com\/5067\/5764558857_0a65ccb290_q.jpg","url":"http:\/\/\/farm6.staticflickr.com\/5067\/5764558857_0a65ccb290.jpg"}},{"type":"Feature","geometry":{"type":"Point","coordinates":[-74.001853,40.730525]},"properties":{"title":"New York ist inzwischen sowas von \"organic\" #vhdny","marker-color":"#cd9455","marker-size":"small","marker-symbol":"circle","image":"http:\/\/\/farm9.staticflickr.com\/8218\/8290423395_dc07824910_q.jpg","url":"http:\/\/\/farm9.staticflickr.com\/8218\/8290423395_dc07824910.jpg"}},{"type":"Feature","geometry":{"type":"Point","coordinates":[-73.985667,40.727333]},"properties":{"title":"The Organic Grill","marker-color":"#cd9455","marker-size":"small","marker-symbol":"circle","image":"http:\/\/\/farm5.staticflickr.com\/4141\/5441455853_80f55ae099_q.jpg","url":"http:\/\/\/farm5.staticflickr.com\/4141\/5441455853_80f55ae099.jpg"}},{"type":"Feature","geometry":{"type":"Point","coordinates":[-73.985667,40.727166]},"properties":{"title":"Vegan ice cream sandwich","marker-color":"#cd9455","marker-size":"small","marker-symbol":"circle","image":"http:\/\/\/farm8.staticflickr.com\/7261\/7505103700_33be45cb1a_q.jpg","url":"http:\/\/\/farm8.staticflickr.com\/7261\/7505103700_33be45cb1a.jpg"}},{"type":"Feature","geometry":{"type":"Point","coordinates":[-73.985642,40.726406]},"properties":{"title":"p127213-New_York-Caravan_of_Dreams","marker-color":"#cd9455","marker-size":"small","marker-symbol":"circle","image":"http:\/\/\/farm3.staticflickr.com\/2679\/4417460510_8b91eaf610_q.jpg","url":"http:\/\/\/farm3.staticflickr.com\/2679\/4417460510_8b91eaf610.jpg"}},{"type":"Feature","geometry":{"type":"Point","coordinates":[-73.988879,40.721341]},"properties":{"title":"Debates beer \u2014 Drinking a Hop Noir by Peak Organic Brewing Company","marker-color":"#cd9455","marker-size":"small","marker-symbol":"circle","image":"http:\/\/\/farm9.staticflickr.com\/8170\/8052374520_c783bbdb5b_q.jpg","url":"http:\/\/\/farm9.staticflickr.com\/8170\/8052374520_c783bbdb5b.jpg"}},{"type":"Feature","geometry":{"type":"Point","coordinates":[-73.99,40.72]},"properties":{"title":"vegan cupcakes, orgainc earl grey, cake shop, NYC","marker-color":"#cd9455","marker-size":"small","marker-symbol":"circle","image":"http:\/\/\/farm4.staticflickr.com\/3547\/3380931890_c9008217e7_q.jpg","url":"http:\/\/\/farm4.staticflickr.com\/3547\/3380931890_c9008217e7.jpg"}},{"type":"Feature","geometry":{"type":"Point","coordinates":[-73.996009,40.740386]},"properties":{"title":"Bubby's Restaurant Tribeca: Macoun and Matsu Whiskey Apple Crumble with Heritage Lard and Organic Butter Crust","marker-color":"#cd9455","marker-size":"small","marker-symbol":"circle","image":"http:\/\/\/farm9.staticflickr.com\/8452\/8055192127_bf1516b449_q.jpg","url":"http:\/\/\/farm9.staticflickr.com\/8452\/8055192127_bf1516b449.jpg"}},{"type":"Feature","geometry":{"type":"Point","coordinates":[-73.996009,40.740386]},"properties":{"title":"Bubby's Restaurant Tribeca: Macoun and Matsu Whiskey Apple Crumble with Heritage Lard and Organic Butter Crust","marker-color":"#cd9455","marker-size":"small","marker-symbol":"circle","image":"http:\/\/\/farm9.staticflickr.com\/8457\/8055192302_1bb6eb81fd_q.jpg","url":"http:\/\/\/farm9.staticflickr.com\/8457\/8055192302_1bb6eb81fd.jpg"}},{"type":"Feature","geometry":{"type":"Point","coordinates":[-74.001932,40.737616]},"properties":{"title":"Organic Bloody Lover, Brunch Cocktail, L' Amant, West Village, New York : www.Lamantnyc.com","marker-color":"#cd9455","marker-size":"small","marker-symbol":"circle","image":"http:\/\/\/farm9.staticflickr.com\/8095\/8350429604_273f3fe849_q.jpg","url":"http:\/\/\/farm9.staticflickr.com\/8095\/8350429604_273f3fe849.jpg"}},{"type":"Feature","geometry":{"type":"Point","coordinates":[-74.00164,40.721482]},"properties":{"title":"Mediterranean Platter","marker-color":"#cd9455","marker-size":"small","marker-symbol":"circle","image":"http:\/\/\/farm4.staticflickr.com\/3026\/2991172099_d4e1fd9ccc_q.jpg","url":"http:\/\/\/farm4.staticflickr.com\/3026\/2991172099_d4e1fd9ccc.jpg"}},{"type":"Feature","geometry":{"type":"Point","coordinates":[-73.993488,40.718135]},"properties":{"title":"Organic Fly","marker-color":"#cd9455","marker-size":"small","marker-symbol":"circle","image":"http:\/\/\/farm9.staticflickr.com\/8013\/6978369558_bece0de155_q.jpg","url":"http:\/\/\/farm9.staticflickr.com\/8013\/6978369558_bece0de155.jpg"}},{"type":"Feature","geometry":{"type":"Point","coordinates":[-74.006167,40.731666]},"properties":{"title":"Niku Natto: minced chuck eye, organic fermented soybeans and organic japanese mountain potato served with a spicy miso paste, Takashi, Hudson St, West Village","marker-color":"#cd9455","marker-size":"small","marker-symbol":"circle","image":"http:\/\/\/farm5.staticflickr.com\/4018\/5165437923_ea6d47c54d_q.jpg","url":"http:\/\/\/farm5.staticflickr.com\/4018\/5165437923_ea6d47c54d.jpg"}},{"type":"Feature","geometry":{"type":"Point","coordinates":[-73.98733,40.741644]},"properties":{"title":"Main: Organic Turkey","marker-color":"#cd9455","marker-size":"small","marker-symbol":"circle","image":"http:\/\/\/farm3.staticflickr.com\/2285\/2055974621_78fa1e25e8_q.jpg","url":"http:\/\/\/farm3.staticflickr.com\/2285\/2055974621_78fa1e25e8.jpg"}},{"type":"Feature","geometry":{"type":"Point","coordinates":[-74.010348,40.7301]},"properties":{"title":"NYC - West Village: RIB","marker-color":"#cd9455","marker-size":"small","marker-symbol":"circle","image":"http:\/\/\/farm1.staticflickr.com\/187\/371164279_1664576bc0_q.jpg","url":"http:\/\/\/farm1.staticflickr.com\/187\/371164279_1664576bc0.jpg"}},{"type":"Feature","geometry":{"type":"Point","coordinates":[-73.993751,40.726459]},"properties":{"title":"Summer Bounty","marker-color":"#cd9455","marker-size":"small","marker-symbol":"circle","image":"http:\/\/\/farm9.staticflickr.com\/8430\/7751155528_24d3e0d204_q.jpg","url":"http:\/\/\/farm9.staticflickr.com\/8430\/7751155528_24d3e0d204.jpg"}},{"type":"Feature","geometry":{"type":"Point","coordinates":[-73.995462,40.72678]},"properties":{"title":"Chocolate milk","marker-color":"#cd9455","marker-size":"small","marker-symbol":"circle","image":"http:\/\/\/farm1.staticflickr.com\/2\/1596826_6df36447c3_q.jpg","url":"http:\/\/\/farm1.staticflickr.com\/2\/1596826_6df36447c3.jpg"}},{"type":"Feature","geometry":{"type":"Point","coordinates":[-73.993231,40.726331]},"properties":{"title":"40 Bond St.","marker-color":"#cd9455","marker-size":"small","marker-symbol":"circle","image":"http:\/\/\/farm3.staticflickr.com\/2168\/2166272342_f992023f10_q.jpg","url":"http:\/\/\/farm3.staticflickr.com\/2168\/2166272342_f992023f10.jpg"}},{"type":"Feature","geometry":{"type":"Point","coordinates":[-73.993231,40.726331]},"properties":{"title":"40 Bond St.","marker-color":"#cd9455","marker-size":"small","marker-symbol":"circle","image":"http:\/\/\/farm3.staticflickr.com\/2361\/2165474619_56c219c171_q.jpg","url":"http:\/\/\/farm3.staticflickr.com\/2361\/2165474619_56c219c171.jpg"}},{"type":"Feature","geometry":{"type":"Point","coordinates":[-73.993231,40.726331]},"properties":{"title":"40 Bond St.","marker-color":"#cd9455","marker-size":"small","marker-symbol":"circle","image":"http:\/\/\/farm3.staticflickr.com\/2028\/2165475525_2f923cba85_q.jpg","url":"http:\/\/\/farm3.staticflickr.com\/2028\/2165475525_2f923cba85.jpg"}},{"type":"Feature","geometry":{"type":"Point","coordinates":[-73.993231,40.726331]},"properties":{"title":"40 Bond St.","marker-color":"#cd9455","marker-size":"small","marker-symbol":"circle","image":"http:\/\/\/farm3.staticflickr.com\/2306\/2166271284_5b8999bc2d_q.jpg","url":"http:\/\/\/farm3.staticflickr.com\/2306\/2166271284_5b8999bc2d.jpg"}},{"type":"Feature","geometry":{"type":"Point","coordinates":[-73.99727,40.731145]},"properties":{"title":"Painting New York ... with sand by Joe Mangrum","marker-color":"#cd9455","marker-size":"small","marker-symbol":"circle","image":"http:\/\/\/farm5.staticflickr.com\/4102\/4755452236_30e72e0746_q.jpg","url":"http:\/\/\/farm5.staticflickr.com\/4102\/4755452236_30e72e0746.jpg"}},{"type":"Feature","geometry":{"type":"Point","coordinates":[-73.99727,40.731145]},"properties":{"title":"Painting New York ... with sand by Joe Mangrum","marker-color":"#cd9455","marker-size":"small","marker-symbol":"circle","image":"http:\/\/\/farm5.staticflickr.com\/4097\/4755456400_9f97151fc3_q.jpg","url":"http:\/\/\/farm5.staticflickr.com\/4097\/4755456400_9f97151fc3.jpg"}},{"type":"Feature","geometry":{"type":"Point","coordinates":[-73.99727,40.731145]},"properties":{"title":"Painting New York ... with sand by Joe Mangrum","marker-color":"#cd9455","marker-size":"small","marker-symbol":"circle","image":"http:\/\/\/farm5.staticflickr.com\/4099\/4754816107_660a42b6de_q.jpg","url":"http:\/\/\/farm5.staticflickr.com\/4099\/4754816107_660a42b6de.jpg"}},{"type":"Feature","geometry":{"type":"Point","coordinates":[-73.989448,40.729894]},"properties":{"title":"Manhattan, New York City","marker-color":"#cd9455","marker-size":"small","marker-symbol":"circle","image":"http:\/\/\/farm8.staticflickr.com\/7056\/7126408927_3a4010cbc7_q.jpg","url":"http:\/\/\/farm8.staticflickr.com\/7056\/7126408927_3a4010cbc7.jpg"}},{"type":"Feature","geometry":{"type":"Point","coordinates":[-73.996167,40.726]},"properties":{"title":"real time reviews at retail","marker-color":"#cd9455","marker-size":"small","marker-symbol":"circle","image":"http:\/\/\/farm4.staticflickr.com\/3314\/3570470432_24a010ab78_q.jpg","url":"http:\/\/\/farm4.staticflickr.com\/3314\/3570470432_24a010ab78.jpg"}},{"type":"Feature","geometry":{"type":"Point","coordinates":[-73.992547,40.72519]},"properties":{"title":"Roasted organic half chicken @ Saxon + Parole","marker-color":"#cd9455","marker-size":"small","marker-symbol":"circle","image":"http:\/\/\/farm3.staticflickr.com\/2883\/9303833104_9a73eed9b4_q.jpg","url":"http:\/\/\/farm3.staticflickr.com\/2883\/9303833104_9a73eed9b4.jpg"}},{"type":"Feature","geometry":{"type":"Point","coordinates":[-73.989057,40.731165]},"properties":{"title":"Apiary - Roasted Organic Chicken","marker-color":"#cd9455","marker-size":"small","marker-symbol":"circle","image":"http:\/\/\/farm9.staticflickr.com\/8014\/7437009158_d57436d9fd_q.jpg","url":"http:\/\/\/farm9.staticflickr.com\/8014\/7437009158_d57436d9fd.jpg"}},{"type":"Feature","geometry":{"type":"Point","coordinates":[-73.990892,40.725677]},"properties":{"title":"Iced Tisanes from McEnroe Organic","marker-color":"#cd9455","marker-size":"small","marker-symbol":"circle","image":"http:\/\/\/farm4.staticflickr.com\/3375\/4630622602_ee973b3290_q.jpg","url":"http:\/\/\/farm4.staticflickr.com\/3375\/4630622602_ee973b3290.jpg"}},{"type":"Feature","geometry":{"type":"Point","coordinates":[-73.990892,40.725677]},"properties":{"title":"Iced Tisanes served by McEnroe Organic Farmers","marker-color":"#cd9455","marker-size":"small","marker-symbol":"circle","image":"http:\/\/\/farm5.staticflickr.com\/4045\/4630621826_a83b821967_q.jpg","url":"http:\/\/\/farm5.staticflickr.com\/4045\/4630621826_a83b821967.jpg"}},{"type":"Feature","geometry":{"type":"Point","coordinates":[-73.993331,40.724666]},"properties":{"title":"Organic food just tastes better.","marker-color":"#cd9455","marker-size":"small","marker-symbol":"circle","image":"http:\/\/\/farm6.staticflickr.com\/5450\/7375815806_39b38cea05_q.jpg","url":"http:\/\/\/farm6.staticflickr.com\/5450\/7375815806_39b38cea05.jpg"}},{"type":"Feature","geometry":{"type":"Point","coordinates":[-73.99131,40.734836]},"properties":{"title":"Organic Food","marker-color":"#cd9455","marker-size":"small","marker-symbol":"circle","image":"http:\/\/\/farm1.staticflickr.com\/41\/105466626_f435c5dbd8_q.jpg","url":"http:\/\/\/farm1.staticflickr.com\/41\/105466626_f435c5dbd8.jpg"}},{"type":"Feature","geometry":{"type":"Point","coordinates":[-73.99838,40.73295]},"properties":{"title":"Liquid Tribal: at Church Sep 28th, Club Love, NYC","marker-color":"#cd9455","marker-size":"small","marker-symbol":"circle","image":"http:\/\/\/farm4.staticflickr.com\/3175\/3027436369_8ea00efb30_q.jpg","url":"http:\/\/\/farm4.staticflickr.com\/3175\/3027436369_8ea00efb30.jpg"}},{"type":"Feature","geometry":{"type":"Point","coordinates":[-73.99838,40.73295]},"properties":{"title":"Liquid Tribal: at Church Sep 28th, Club Love, NYC","marker-color":"#cd9455","marker-size":"small","marker-symbol":"circle","image":"http:\/\/\/farm4.staticflickr.com\/3235\/3028282948_9923081a47_q.jpg","url":"http:\/\/\/farm4.staticflickr.com\/3235\/3028282948_9923081a47.jpg"}},{"type":"Feature","geometry":{"type":"Point","coordinates":[-73.99838,40.73295]},"properties":{"title":"Liquid Tribal: at Church Sep 28th, Club Love, NYC","marker-color":"#cd9455","marker-size":"small","marker-symbol":"circle","image":"http:\/\/\/farm4.staticflickr.com\/3181\/3028279242_ed12d5a1e9_q.jpg","url":"http:\/\/\/farm4.staticflickr.com\/3181\/3028279242_ed12d5a1e9.jpg"}},{"type":"Feature","geometry":{"type":"Point","coordinates":[-73.99838,40.73295]},"properties":{"title":"Liquid Tribal: at Church Sep 28th, Club Love, NYC","marker-color":"#cd9455","marker-size":"small","marker-symbol":"circle","image":"http:\/\/\/farm4.staticflickr.com\/3216\/3027442497_5363029ba3_q.jpg","url":"http:\/\/\/farm4.staticflickr.com\/3216\/3027442497_5363029ba3.jpg"}},{"type":"Feature","geometry":{"type":"Point","coordinates":[-73.99838,40.73295]},"properties":{"title":"Liquid Tribal: at Church Sep 28th, Club Love, NYC","marker-color":"#cd9455","marker-size":"small","marker-symbol":"circle","image":"http:\/\/\/farm4.staticflickr.com\/3015\/3028290992_534ed94034_q.jpg","url":"http:\/\/\/farm4.staticflickr.com\/3015\/3028290992_534ed94034.jpg"}},{"type":"Feature","geometry":{"type":"Point","coordinates":[-73.99838,40.73295]},"properties":{"title":"Liquid Tribal: at Church Sep 28th, Club Love, NYC","marker-color":"#cd9455","marker-size":"small","marker-symbol":"circle","image":"http:\/\/\/farm4.staticflickr.com\/3211\/3028264984_6c9179d389_q.jpg","url":"http:\/\/\/farm4.staticflickr.com\/3211\/3028264984_6c9179d389.jpg"}},{"type":"Feature","geometry":{"type":"Point","coordinates":[-73.99838,40.73295]},"properties":{"title":"Liquid Tribal: at Church Sep 28th, Club Love, NYC","marker-color":"#cd9455","marker-size":"small","marker-symbol":"circle","image":"http:\/\/\/farm4.staticflickr.com\/3157\/3027440117_9035f43c0f_q.jpg","url":"http:\/\/\/farm4.staticflickr.com\/3157\/3027440117_9035f43c0f.jpg"}},{"type":"Feature","geometry":{"type":"Point","coordinates":[-73.99838,40.73295]},"properties":{"title":"Liquid Tribal: at Church Sep 28th, Club Love, NYC","marker-color":"#cd9455","marker-size":"small","marker-symbol":"circle","image":"http:\/\/\/farm4.staticflickr.com\/3195\/3028271512_485f451572_q.jpg","url":"http:\/\/\/farm4.staticflickr.com\/3195\/3028271512_485f451572.jpg"}},{"type":"Feature","geometry":{"type":"Point","coordinates":[-73.99838,40.73295]},"properties":{"title":"Liquid Tribal: at Church Sep 28th, Club Love, NYC","marker-color":"#cd9455","marker-size":"small","marker-symbol":"circle","image":"http:\/\/\/farm4.staticflickr.com\/3224\/3027452655_100645d5ac_q.jpg","url":"http:\/\/\/farm4.staticflickr.com\/3224\/3027452655_100645d5ac.jpg"}},{"type":"Feature","geometry":{"type":"Point","coordinates":[-73.99838,40.73295]},"properties":{"title":"Liquid Tribal: at Church Sep 28th, Club Love, NYC","marker-color":"#cd9455","marker-size":"small","marker-symbol":"circle","image":"http:\/\/\/farm4.staticflickr.com\/3215\/3027448919_7c0cdfe6ba_q.jpg","url":"http:\/\/\/farm4.staticflickr.com\/3215\/3027448919_7c0cdfe6ba.jpg"}},{"type":"Feature","geometry":{"type":"Point","coordinates":[-73.99838,40.73295]},"properties":{"title":"Liquid Tribal: at Church Sep 28th, Club Love, NYC","marker-color":"#cd9455","marker-size":"small","marker-symbol":"circle","image":"http:\/\/\/farm4.staticflickr.com\/3244\/3027449193_8eb24a454e_q.jpg","url":"http:\/\/\/farm4.staticflickr.com\/3244\/3027449193_8eb24a454e.jpg"}},{"type":"Feature","geometry":{"type":"Point","coordinates":[-73.99838,40.73295]},"properties":{"title":"Liquid Tribal: at Church Sep 28th, Club Love, NYC","marker-color":"#cd9455","marker-size":"small","marker-symbol":"circle","image":"http:\/\/\/farm4.staticflickr.com\/3177\/3027457379_d144ed0f71_q.jpg","url":"http:\/\/\/farm4.staticflickr.com\/3177\/3027457379_d144ed0f71.jpg"}},{"type":"Feature","geometry":{"type":"Point","coordinates":[-73.99838,40.73295]},"properties":{"title":"Liquid Tribal: at Church Sep 28th, Club Love, NYC","marker-color":"#cd9455","marker-size":"small","marker-symbol":"circle","image":"http:\/\/\/farm4.staticflickr.com\/3193\/3028269706_964425de73_q.jpg","url":"http:\/\/\/farm4.staticflickr.com\/3193\/3028269706_964425de73.jpg"}},{"type":"Feature","geometry":{"type":"Point","coordinates":[-73.99838,40.73295]},"properties":{"title":"Liquid Tribal: at Church Sep 28th, Club Love, NYC","marker-color":"#cd9455","marker-size":"small","marker-symbol":"circle","image":"http:\/\/\/farm4.staticflickr.com\/3136\/3028277654_17ca5a95d8_q.jpg","url":"http:\/\/\/farm4.staticflickr.com\/3136\/3028277654_17ca5a95d8.jpg"}},{"type":"Feature","geometry":{"type":"Point","coordinates":[-73.99838,40.73295]},"properties":{"title":"Liquid Tribal: at Church Sep 28th, Club Love, NYC","marker-color":"#cd9455","marker-size":"small","marker-symbol":"circle","image":"http:\/\/\/farm4.staticflickr.com\/3274\/3028265852_7887122efb_q.jpg","url":"http:\/\/\/farm4.staticflickr.com\/3274\/3028265852_7887122efb.jpg"}},{"type":"Feature","geometry":{"type":"Point","coordinates":[-73.99838,40.73295]},"properties":{"title":"Liquid Tribal: at Church Sep 28th, Club Love, NYC","marker-color":"#cd9455","marker-size":"small","marker-symbol":"circle","image":"http:\/\/\/farm4.staticflickr.com\/3009\/3028266906_013d5af56c_q.jpg","url":"http:\/\/\/farm4.staticflickr.com\/3009\/3028266906_013d5af56c.jpg"}},{"type":"Feature","geometry":{"type":"Point","coordinates":[-73.99838,40.73295]},"properties":{"title":"Liquid Tribal: at Church Sep 28th, Club Love, NYC","marker-color":"#cd9455","marker-size":"small","marker-symbol":"circle","image":"http:\/\/\/farm4.staticflickr.com\/3201\/3028272502_e70b4be4b0_q.jpg","url":"http:\/\/\/farm4.staticflickr.com\/3201\/3028272502_e70b4be4b0.jpg"}},{"type":"Feature","geometry":{"type":"Point","coordinates":[-73.99838,40.73295]},"properties":{"title":"Liquid Tribal: at Church Sep 28th, Club Love, NYC","marker-color":"#cd9455","marker-size":"small","marker-symbol":"circle","image":"http:\/\/\/farm4.staticflickr.com\/3035\/3027431979_0f565e6d8b_q.jpg","url":"http:\/\/\/farm4.staticflickr.com\/3035\/3027431979_0f565e6d8b.jpg"}},{"type":"Feature","geometry":{"type":"Point","coordinates":[-73.99838,40.73295]},"properties":{"title":"Liquid Tribal: at Church Sep 28th, Club Love, NYC","marker-color":"#cd9455","marker-size":"small","marker-symbol":"circle","image":"http:\/\/\/farm4.staticflickr.com\/3286\/3027433789_a9034cd701_q.jpg","url":"http:\/\/\/farm4.staticflickr.com\/3286\/3027433789_a9034cd701.jpg"}},{"type":"Feature","geometry":{"type":"Point","coordinates":[-73.99838,40.73295]},"properties":{"title":"Liquid Tribal: at Church Sep 28th, Club Love, NYC","marker-color":"#cd9455","marker-size":"small","marker-symbol":"circle","image":"http:\/\/\/farm4.staticflickr.com\/3035\/3027451787_9e4197d66f_q.jpg","url":"http:\/\/\/farm4.staticflickr.com\/3035\/3027451787_9e4197d66f.jpg"}},{"type":"Feature","geometry":{"type":"Point","coordinates":[-73.99838,40.73295]},"properties":{"title":"Liquid Tribal: at Church Sep 28th, Club Love, NYC","marker-color":"#cd9455","marker-size":"small","marker-symbol":"circle","image":"http:\/\/\/farm4.staticflickr.com\/3296\/3028280036_7729c69b2e_q.jpg","url":"http:\/\/\/farm4.staticflickr.com\/3296\/3028280036_7729c69b2e.jpg"}},{"type":"Feature","geometry":{"type":"Point","coordinates":[-73.99838,40.73295]},"properties":{"title":"Liquid Tribal: at Church Sep 28th, Club Love, NYC","marker-color":"#cd9455","marker-size":"small","marker-symbol":"circle","image":"http:\/\/\/farm4.staticflickr.com\/3231\/3028282242_2f957d9ffe_q.jpg","url":"http:\/\/\/farm4.staticflickr.com\/3231\/3028282242_2f957d9ffe.jpg"}},{"type":"Feature","geometry":{"type":"Point","coordinates":[-73.99838,40.73295]},"properties":{"title":"Liquid Tribal: at Church Sep 28th, Club Love, NYC","marker-color":"#cd9455","marker-size":"small","marker-symbol":"circle","image":"http:\/\/\/farm4.staticflickr.com\/3023\/3028289146_c6d232321e_q.jpg","url":"http:\/\/\/farm4.staticflickr.com\/3023\/3028289146_c6d232321e.jpg"}},{"type":"Feature","geometry":{"type":"Point","coordinates":[-73.99838,40.73295]},"properties":{"title":"Liquid Tribal: at Church Sep 28th, Club Love, NYC","marker-color":"#cd9455","marker-size":"small","marker-symbol":"circle","image":"http:\/\/\/farm4.staticflickr.com\/3073\/3028264762_4b9ac01903_q.jpg","url":"http:\/\/\/farm4.staticflickr.com\/3073\/3028264762_4b9ac01903.jpg"}},{"type":"Feature","geometry":{"type":"Point","coordinates":[-73.99838,40.73295]},"properties":{"title":"Liquid Tribal: at Church Sep 28th, Club Love, NYC","marker-color":"#cd9455","marker-size":"small","marker-symbol":"circle","image":"http:\/\/\/farm4.staticflickr.com\/3186\/3027435983_3048051a53_q.jpg","url":"http:\/\/\/farm4.staticflickr.com\/3186\/3027435983_3048051a53.jpg"}},{"type":"Feature","geometry":{"type":"Point","coordinates":[-73.99838,40.73295]},"properties":{"title":"Liquid Tribal: at Church Sep 28th, Club Love, NYC","marker-color":"#cd9455","marker-size":"small","marker-symbol":"circle","image":"http:\/\/\/farm4.staticflickr.com\/3220\/3027444523_ae2c7618c4_q.jpg","url":"http:\/\/\/farm4.staticflickr.com\/3220\/3027444523_ae2c7618c4.jpg"}},{"type":"Feature","geometry":{"type":"Point","coordinates":[-73.99838,40.73295]},"properties":{"title":"Liquid Tribal: at Church Sep 28th, Club Love, NYC","marker-color":"#cd9455","marker-size":"small","marker-symbol":"circle","image":"http:\/\/\/farm4.staticflickr.com\/3274\/3027455917_f9a88398af_q.jpg","url":"http:\/\/\/farm4.staticflickr.com\/3274\/3027455917_f9a88398af.jpg"}},{"type":"Feature","geometry":{"type":"Point","coordinates":[-73.99838,40.73295]},"properties":{"title":"Liquid Tribal: at Church Sep 28th, Club Love, NYC","marker-color":"#cd9455","marker-size":"small","marker-symbol":"circle","image":"http:\/\/\/farm4.staticflickr.com\/3039\/3027438679_b75f34e742_q.jpg","url":"http:\/\/\/farm4.staticflickr.com\/3039\/3027438679_b75f34e742.jpg"}},{"type":"Feature","geometry":{"type":"Point","coordinates":[-73.99838,40.73295]},"properties":{"title":"Liquid Tribal: at Church Sep 28th, Club Love, NYC","marker-color":"#cd9455","marker-size":"small","marker-symbol":"circle","image":"http:\/\/\/farm4.staticflickr.com\/3293\/3027451199_31875903af_q.jpg","url":"http:\/\/\/farm4.staticflickr.com\/3293\/3027451199_31875903af.jpg"}},{"type":"Feature","geometry":{"type":"Point","coordinates":[-73.99838,40.73295]},"properties":{"title":"Liquid Tribal: at Church Sep 28th, Club Love, NYC","marker-color":"#cd9455","marker-size":"small","marker-symbol":"circle","image":"http:\/\/\/farm4.staticflickr.com\/3280\/3028281732_c13bcf304e_q.jpg","url":"http:\/\/\/farm4.staticflickr.com\/3280\/3028281732_c13bcf304e.jpg"}},{"type":"Feature","geometry":{"type":"Point","coordinates":[-73.99838,40.73295]},"properties":{"title":"Liquid Tribal: at Church Sep 28th, Club Love, NYC","marker-color":"#cd9455","marker-size":"small","marker-symbol":"circle","image":"http:\/\/\/farm4.staticflickr.com\/3153\/3028269852_bfd82fa6cd_q.jpg","url":"http:\/\/\/farm4.staticflickr.com\/3153\/3028269852_bfd82fa6cd.jpg"}},{"type":"Feature","geometry":{"type":"Point","coordinates":[-73.99838,40.73295]},"properties":{"title":"Liquid Tribal: at Church Sep 28th, Club Love, NYC","marker-color":"#cd9455","marker-size":"small","marker-symbol":"circle","image":"http:\/\/\/farm4.staticflickr.com\/3291\/3028292284_415dce8ace_q.jpg","url":"http:\/\/\/farm4.staticflickr.com\/3291\/3028292284_415dce8ace.jpg"}},{"type":"Feature","geometry":{"type":"Point","coordinates":[-73.99838,40.73295]},"properties":{"title":"Liquid Tribal: at Church Sep 28th, Club Love, NYC","marker-color":"#cd9455","marker-size":"small","marker-symbol":"circle","image":"http:\/\/\/farm4.staticflickr.com\/3179\/3028275246_bd4d865906_q.jpg","url":"http:\/\/\/farm4.staticflickr.com\/3179\/3028275246_bd4d865906.jpg"}},{"type":"Feature","geometry":{"type":"Point","coordinates":[-73.99838,40.73295]},"properties":{"title":"Liquid Tribal: at Church Sep 28th, Club Love, NYC","marker-color":"#cd9455","marker-size":"small","marker-symbol":"circle","image":"http:\/\/\/farm4.staticflickr.com\/3195\/3027450227_99ca6a2a8c_q.jpg","url":"http:\/\/\/farm4.staticflickr.com\/3195\/3027450227_99ca6a2a8c.jpg"}},{"type":"Feature","geometry":{"type":"Point","coordinates":[-73.99838,40.73295]},"properties":{"title":"Liquid Tribal: at Church Sep 28th, Club Love, NYC","marker-color":"#cd9455","marker-size":"small","marker-symbol":"circle","image":"http:\/\/\/farm4.staticflickr.com\/3292\/3028273900_5b81b9376b_q.jpg","url":"http:\/\/\/farm4.staticflickr.com\/3292\/3028273900_5b81b9376b.jpg"}},{"type":"Feature","geometry":{"type":"Point","coordinates":[-73.99838,40.73295]},"properties":{"title":"Liquid Tribal: at Church Sep 28th, Club Love, NYC","marker-color":"#cd9455","marker-size":"small","marker-symbol":"circle","image":"http:\/\/\/farm4.staticflickr.com\/3197\/3028271034_36f331b5a7_q.jpg","url":"http:\/\/\/farm4.staticflickr.com\/3197\/3028271034_36f331b5a7.jpg"}},{"type":"Feature","geometry":{"type":"Point","coordinates":[-73.99838,40.73295]},"properties":{"title":"Liquid Tribal: at Church Sep 28th, Club Love, NYC","marker-color":"#cd9455","marker-size":"small","marker-symbol":"circle","image":"http:\/\/\/farm4.staticflickr.com\/3019\/3028276248_16f7417788_q.jpg","url":"http:\/\/\/farm4.staticflickr.com\/3019\/3028276248_16f7417788.jpg"}},{"type":"Feature","geometry":{"type":"Point","coordinates":[-73.99838,40.73295]},"properties":{"title":"Liquid Tribal: at Church Sep 28th, Club Love, NYC","marker-color":"#cd9455","marker-size":"small","marker-symbol":"circle","image":"http:\/\/\/farm4.staticflickr.com\/3270\/3028284388_f7dfee002a_q.jpg","url":"http:\/\/\/farm4.staticflickr.com\/3270\/3028284388_f7dfee002a.jpg"}},{"type":"Feature","geometry":{"type":"Point","coordinates":[-73.99838,40.73295]},"properties":{"title":"Liquid Tribal: at Church Sep 28th, Club Love, NYC","marker-color":"#cd9455","marker-size":"small","marker-symbol":"circle","image":"http:\/\/\/farm4.staticflickr.com\/3276\/3027455501_05a51d9a70_q.jpg","url":"http:\/\/\/farm4.staticflickr.com\/3276\/3027455501_05a51d9a70.jpg"}},{"type":"Feature","geometry":{"type":"Point","coordinates":[-73.99838,40.73295]},"properties":{"title":"Liquid Tribal: at Church Sep 28th, Club Love, NYC","marker-color":"#cd9455","marker-size":"small","marker-symbol":"circle","image":"http:\/\/\/farm4.staticflickr.com\/3056\/3027455083_c02614a7c7_q.jpg","url":"http:\/\/\/farm4.staticflickr.com\/3056\/3027455083_c02614a7c7.jpg"}},{"type":"Feature","geometry":{"type":"Point","coordinates":[-73.99838,40.73295]},"properties":{"title":"Liquid Tribal: at Church Sep 28th, Club Love, NYC","marker-color":"#cd9455","marker-size":"small","marker-symbol":"circle","image":"http:\/\/\/farm4.staticflickr.com\/3254\/3027446725_6cf2873506_q.jpg","url":"http:\/\/\/farm4.staticflickr.com\/3254\/3027446725_6cf2873506.jpg"}},{"type":"Feature","geometry":{"type":"Point","coordinates":[-73.99838,40.73295]},"properties":{"title":"Liquid Tribal: at Church Sep 28th, Club Love, NYC","marker-color":"#cd9455","marker-size":"small","marker-symbol":"circle","image":"http:\/\/\/farm4.staticflickr.com\/3178\/3028288192_5d867b0854_q.jpg","url":"http:\/\/\/farm4.staticflickr.com\/3178\/3028288192_5d867b0854.jpg"}},{"type":"Feature","geometry":{"type":"Point","coordinates":[-73.99838,40.73295]},"properties":{"title":"Liquid Tribal: at Church Sep 28th, Club Love, NYC","marker-color":"#cd9455","marker-size":"small","marker-symbol":"circle","image":"http:\/\/\/farm4.staticflickr.com\/3030\/3028266614_0d1d52d73e_q.jpg","url":"http:\/\/\/farm4.staticflickr.com\/3030\/3028266614_0d1d52d73e.jpg"}},{"type":"Feature","geometry":{"type":"Point","coordinates":[-73.99838,40.73295]},"properties":{"title":"Liquid Tribal: at Church Sep 28th, Club Love, NYC","marker-color":"#cd9455","marker-size":"small","marker-symbol":"circle","image":"http:\/\/\/farm4.staticflickr.com\/3070\/3027445987_41e9c2f4fd_q.jpg","url":"http:\/\/\/farm4.staticflickr.com\/3070\/3027445987_41e9c2f4fd.jpg"}},{"type":"Feature","geometry":{"type":"Point","coordinates":[-73.99838,40.73295]},"properties":{"title":"Liquid Tribal: at Church Sep 28th, Club Love, NYC","marker-color":"#cd9455","marker-size":"small","marker-symbol":"circle","image":"http:\/\/\/farm4.staticflickr.com\/3201\/3027456839_81a2247fb0_q.jpg","url":"http:\/\/\/farm4.staticflickr.com\/3201\/3027456839_81a2247fb0.jpg"}},{"type":"Feature","geometry":{"type":"Point","coordinates":[-73.99838,40.73295]},"properties":{"title":"Liquid Tribal: at Church Sep 28th, Club Love, NYC","marker-color":"#cd9455","marker-size":"small","marker-symbol":"circle","image":"http:\/\/\/farm4.staticflickr.com\/3058\/3027431189_c5b7d0b138_q.jpg","url":"http:\/\/\/farm4.staticflickr.com\/3058\/3027431189_c5b7d0b138.jpg"}},{"type":"Feature","geometry":{"type":"Point","coordinates":[-73.99838,40.73295]},"properties":{"title":"Liquid Tribal: at Church Sep 28th, Club Love, NYC","marker-color":"#cd9455","marker-size":"small","marker-symbol":"circle","image":"http:\/\/\/farm4.staticflickr.com\/3045\/3027433359_ce01b49f18_q.jpg","url":"http:\/\/\/farm4.staticflickr.com\/3045\/3027433359_ce01b49f18.jpg"}},{"type":"Feature","geometry":{"type":"Point","coordinates":[-73.99838,40.73295]},"properties":{"title":"Liquid Tribal: at Church Sep 28th, Club Love, NYC","marker-color":"#cd9455","marker-size":"small","marker-symbol":"circle","image":"http:\/\/\/farm4.staticflickr.com\/3022\/3027433019_df8eff77f8_q.jpg","url":"http:\/\/\/farm4.staticflickr.com\/3022\/3027433019_df8eff77f8.jpg"}},{"type":"Feature","geometry":{"type":"Point","coordinates":[-73.99838,40.73295]},"properties":{"title":"Liquid Tribal: at Church Sep 28th, Club Love, NYC","marker-color":"#cd9455","marker-size":"small","marker-symbol":"circle","image":"http:\/\/\/farm4.staticflickr.com\/3005\/3028279632_1afd4be07e_q.jpg","url":"http:\/\/\/farm4.staticflickr.com\/3005\/3028279632_1afd4be07e.jpg"}},{"type":"Feature","geometry":{"type":"Point","coordinates":[-73.99838,40.73295]},"properties":{"title":"Liquid Tribal: at Church Sep 28th, Club Love, NYC","marker-color":"#cd9455","marker-size":"small","marker-symbol":"circle","image":"http:\/\/\/farm4.staticflickr.com\/3155\/3027453013_c0c0600f61_q.jpg","url":"http:\/\/\/farm4.staticflickr.com\/3155\/3027453013_c0c0600f61.jpg"}},{"type":"Feature","geometry":{"type":"Point","coordinates":[-73.99838,40.73295]},"properties":{"title":"Liquid Tribal: at Church Sep 28th, Club Love, NYC","marker-color":"#cd9455","marker-size":"small","marker-symbol":"circle","image":"http:\/\/\/farm4.staticflickr.com\/3025\/3028286856_a3b1f15f3a_q.jpg","url":"http:\/\/\/farm4.staticflickr.com\/3025\/3028286856_a3b1f15f3a.jpg"}},{"type":"Feature","geometry":{"type":"Point","coordinates":[-73.99838,40.73295]},"properties":{"title":"Liquid Tribal: at Church Sep 28th, Club Love, NYC","marker-color":"#cd9455","marker-size":"small","marker-symbol":"circle","image":"http:\/\/\/farm4.staticflickr.com\/3254\/3028275656_bd64dacbfb_q.jpg","url":"http:\/\/\/farm4.staticflickr.com\/3254\/3028275656_bd64dacbfb.jpg"}},{"type":"Feature","geometry":{"type":"Point","coordinates":[-73.99838,40.73295]},"properties":{"title":"Liquid Tribal: at Church Sep 28th, Club Love, NYC","marker-color":"#cd9455","marker-size":"small","marker-symbol":"circle","image":"http:\/\/\/farm4.staticflickr.com\/3058\/3027454063_848443bda8_q.jpg","url":"http:\/\/\/farm4.staticflickr.com\/3058\/3027454063_848443bda8.jpg"}},{"type":"Feature","geometry":{"type":"Point","coordinates":[-73.99838,40.73295]},"properties":{"title":"Liquid Tribal: at Church Sep 28th, Club Love, NYC","marker-color":"#cd9455","marker-size":"small","marker-symbol":"circle","image":"http:\/\/\/farm4.staticflickr.com\/3211\/3028278358_c39412e643_q.jpg","url":"http:\/\/\/farm4.staticflickr.com\/3211\/3028278358_c39412e643.jpg"}},{"type":"Feature","geometry":{"type":"Point","coordinates":[-73.99838,40.73295]},"properties":{"title":"Liquid Tribal: at Church Sep 28th, Club Love, NYC","marker-color":"#cd9455","marker-size":"small","marker-symbol":"circle","image":"http:\/\/\/farm4.staticflickr.com\/3005\/3028285414_f1ac77bde5_q.jpg","url":"http:\/\/\/farm4.staticflickr.com\/3005\/3028285414_f1ac77bde5.jpg"}},{"type":"Feature","geometry":{"type":"Point","coordinates":[-73.99838,40.73295]},"properties":{"title":"Liquid Tribal: at Church Sep 28th, Club Love, NYC","marker-color":"#cd9455","marker-size":"small","marker-symbol":"circle","image":"http:\/\/\/farm4.staticflickr.com\/3045\/3027439181_c3368515b0_q.jpg","url":"http:\/\/\/farm4.staticflickr.com\/3045\/3027439181_c3368515b0.jpg"}},{"type":"Feature","geometry":{"type":"Point","coordinates":[-73.99838,40.73295]},"properties":{"title":"Liquid Tribal: at Church Sep 28th, Club Love, NYC","marker-color":"#cd9455","marker-size":"small","marker-symbol":"circle","image":"http:\/\/\/farm4.staticflickr.com\/3156\/3027437725_439d09e6c1_q.jpg","url":"http:\/\/\/farm4.staticflickr.com\/3156\/3027437725_439d09e6c1.jpg"}},{"type":"Feature","geometry":{"type":"Point","coordinates":[-73.990978,40.735006]},"properties":{"title":"\"Eat me I'm organic\" in Union Square","marker-color":"#cd9455","marker-size":"small","marker-symbol":"circle","image":"http:\/\/\/farm5.staticflickr.com\/4031\/4535465514_cb09b860c7_q.jpg","url":"http:\/\/\/farm5.staticflickr.com\/4031\/4535465514_cb09b860c7.jpg"}},{"type":"Feature","geometry":{"type":"Point","coordinates":[-73.991829,40.723955]},"properties":{"title":"My weekly shopping list looks like this + or - a couple of items. #wholefoods #groceryshopping #organic @nutritionistany","marker-color":"#cd9455","marker-size":"small","marker-symbol":"circle","image":"http:\/\/\/farm9.staticflickr.com\/8354\/8425985558_28f7a7b07b_q.jpg","url":"http:\/\/\/farm9.staticflickr.com\/8354\/8425985558_28f7a7b07b.jpg"}},{"type":"Feature","geometry":{"type":"Point","coordinates":[-73.990983,40.735387]},"properties":{"title":"P1070408","marker-color":"#cd9455","marker-size":"small","marker-symbol":"circle","image":"http:\/\/\/farm3.staticflickr.com\/2789\/4120589712_ef304d3635_q.jpg","url":"http:\/\/\/farm3.staticflickr.com\/2789\/4120589712_ef304d3635.jpg"}},{"type":"Feature","geometry":{"type":"Point","coordinates":[-73.990983,40.735387]},"properties":{"title":"P1070403","marker-color":"#cd9455","marker-size":"small","marker-symbol":"circle","image":"http:\/\/\/farm3.staticflickr.com\/2544\/4120588970_5bc1154c22_q.jpg","url":"http:\/\/\/farm3.staticflickr.com\/2544\/4120588970_5bc1154c22.jpg"}},{"type":"Feature","geometry":{"type":"Point","coordinates":[-73.990983,40.735387]},"properties":{"title":"P1070415","marker-color":"#cd9455","marker-size":"small","marker-symbol":"circle","image":"http:\/\/\/farm3.staticflickr.com\/2509\/4120588400_c9a2d34dc4_q.jpg","url":"http:\/\/\/farm3.staticflickr.com\/2509\/4120588400_c9a2d34dc4.jpg"}},{"type":"Feature","geometry":{"type":"Point","coordinates":[-73.990983,40.735387]},"properties":{"title":"P1070418","marker-color":"#cd9455","marker-size":"small","marker-symbol":"circle","image":"http:\/\/\/farm3.staticflickr.com\/2731\/4119813981_8ec34f3cb3_q.jpg","url":"http:\/\/\/farm3.staticflickr.com\/2731\/4119813981_8ec34f3cb3.jpg"}},{"type":"Feature","geometry":{"type":"Point","coordinates":[-73.99072,40.724189]},"properties":{"title":"Dinner June 9, 2008","marker-color":"#cd9455","marker-size":"small","marker-symbol":"circle","image":"http:\/\/\/farm4.staticflickr.com\/3011\/2566763414_450402a208_q.jpg","url":"http:\/\/\/farm4.staticflickr.com\/3011\/2566763414_450402a208.jpg"}},{"type":"Feature","geometry":{"type":"Point","coordinates":[-73.99072,40.724189]},"properties":{"title":"Dinner June 12, 2008","marker-color":"#cd9455","marker-size":"small","marker-symbol":"circle","image":"http:\/\/\/farm4.staticflickr.com\/3074\/2574023819_84bdaf03f2_q.jpg","url":"http:\/\/\/farm4.staticflickr.com\/3074\/2574023819_84bdaf03f2.jpg"}},{"type":"Feature","geometry":{"type":"Point","coordinates":[-73.99072,40.724189]},"properties":{"title":"Dinner October 16, 2008","marker-color":"#cd9455","marker-size":"small","marker-symbol":"circle","image":"http:\/\/\/farm4.staticflickr.com\/3221\/2948831128_12a9bb7601_q.jpg","url":"http:\/\/\/farm4.staticflickr.com\/3221\/2948831128_12a9bb7601.jpg"}},{"type":"Feature","geometry":{"type":"Point","coordinates":[-73.99072,40.724189]},"properties":{"title":"Dinner October 13, 2008","marker-color":"#cd9455","marker-size":"small","marker-symbol":"circle","image":"http:\/\/\/farm3.staticflickr.com\/2251\/2940844556_59948c4e9d_q.jpg","url":"http:\/\/\/farm3.staticflickr.com\/2251\/2940844556_59948c4e9d.jpg"}},{"type":"Feature","geometry":{"type":"Point","coordinates":[-73.99072,40.724189]},"properties":{"title":"Caramelized romanesco cauliflower","marker-color":"#cd9455","marker-size":"small","marker-symbol":"circle","image":"http:\/\/\/farm4.staticflickr.com\/3159\/2939988679_df651477de_q.jpg","url":"http:\/\/\/farm4.staticflickr.com\/3159\/2939988679_df651477de.jpg"}},{"type":"Feature","geometry":{"type":"Point","coordinates":[-73.99072,40.724189]},"properties":{"title":"Lunch September 29, 2008","marker-color":"#cd9455","marker-size":"small","marker-symbol":"circle","image":"http:\/\/\/farm4.staticflickr.com\/3119\/2902960669_8907e28a44_q.jpg","url":"http:\/\/\/farm4.staticflickr.com\/3119\/2902960669_8907e28a44.jpg"}},{"type":"Feature","geometry":{"type":"Point","coordinates":[-73.987575,40.728272]},"properties":{"title":"Manhattan, New York, NY","marker-color":"#cd9455","marker-size":"small","marker-symbol":"circle","image":"http:\/\/\/farm5.staticflickr.com\/4130\/5487475346_6e6e2583e4_q.jpg","url":"http:\/\/\/farm5.staticflickr.com\/4130\/5487475346_6e6e2583e4.jpg"}},{"type":"Feature","geometry":{"type":"Point","coordinates":[-73.991471,40.735705]},"properties":{"title":"Color of My Blade","marker-color":"#cd9455","marker-size":"small","marker-symbol":"circle","image":"http:\/\/\/farm2.staticflickr.com\/1367\/1287789516_0847271528_q.jpg","url":"http:\/\/\/farm2.staticflickr.com\/1367\/1287789516_0847271528.jpg"}},{"type":"Feature","geometry":{"type":"Point","coordinates":[-73.987334,40.729833]},"properties":{"title":"dessert at Stogo","marker-color":"#cd9455","marker-size":"small","marker-symbol":"circle","image":"http:\/\/\/farm4.staticflickr.com\/3162\/5757228883_8329192499_q.jpg","url":"http:\/\/\/farm4.staticflickr.com\/3162\/5757228883_8329192499.jpg"}},{"type":"Feature","geometry":{"type":"Point","coordinates":[-73.993167,40.723333]},"properties":{"title":"ab-wfm-bowery","marker-color":"#cd9455","marker-size":"small","marker-symbol":"circle","image":"http:\/\/\/farm4.staticflickr.com\/3062\/5727047839_a743748786_q.jpg","url":"http:\/\/\/farm4.staticflickr.com\/3062\/5727047839_a743748786.jpg"}},{"type":"Feature","geometry":{"type":"Point","coordinates":[-73.990741,40.73547]},"properties":{"title":"NYC_Nov08_4227","marker-color":"#cd9455","marker-size":"small","marker-symbol":"circle","image":"http:\/\/\/farm4.staticflickr.com\/3149\/3108627668_c750802bc2_q.jpg","url":"http:\/\/\/farm4.staticflickr.com\/3149\/3108627668_c750802bc2.jpg"}},{"type":"Feature","geometry":{"type":"Point","coordinates":[-73.990741,40.73547]},"properties":{"title":"NYC_Nov08_4220","marker-color":"#cd9455","marker-size":"small","marker-symbol":"circle","image":"http:\/\/\/farm4.staticflickr.com\/3203\/3108599040_785829038b_q.jpg","url":"http:\/\/\/farm4.staticflickr.com\/3203\/3108599040_785829038b.jpg"}},{"type":"Feature","geometry":{"type":"Point","coordinates":[-73.990741,40.73547]},"properties":{"title":"NYC_Nov08_4229","marker-color":"#cd9455","marker-size":"small","marker-symbol":"circle","image":"http:\/\/\/farm4.staticflickr.com\/3223\/3107801635_444e8c3bac_q.jpg","url":"http:\/\/\/farm4.staticflickr.com\/3223\/3107801635_444e8c3bac.jpg"}},{"type":"Feature","geometry":{"type":"Point","coordinates":[-73.990741,40.73547]},"properties":{"title":"NYC_Nov08_4226","marker-color":"#cd9455","marker-size":"small","marker-symbol":"circle","image":"http:\/\/\/farm4.staticflickr.com\/3048\/3108623476_0d10462df2_q.jpg","url":"http:\/\/\/farm4.staticflickr.com\/3048\/3108623476_0d10462df2.jpg"}},{"type":"Feature","geometry":{"type":"Point","coordinates":[-73.990741,40.73547]},"properties":{"title":"NYC_Nov08_4219","marker-color":"#cd9455","marker-size":"small","marker-symbol":"circle","image":"http:\/\/\/farm4.staticflickr.com\/3076\/3107760657_320fe557d6_q.jpg","url":"http:\/\/\/farm4.staticflickr.com\/3076\/3107760657_320fe557d6.jpg"}},{"type":"Feature","geometry":{"type":"Point","coordinates":[-73.990741,40.73547]},"properties":{"title":"NYC_Nov08_4234","marker-color":"#cd9455","marker-size":"small","marker-symbol":"circle","image":"http:\/\/\/farm4.staticflickr.com\/3031\/3108656242_1da9e56e25_q.jpg","url":"http:\/\/\/farm4.staticflickr.com\/3031\/3108656242_1da9e56e25.jpg"}},{"type":"Feature","geometry":{"type":"Point","coordinates":[-73.990741,40.73547]},"properties":{"title":"NYC_Nov08_4233","marker-color":"#cd9455","marker-size":"small","marker-symbol":"circle","image":"http:\/\/\/farm4.staticflickr.com\/3218\/3108651902_55dd08cd5c_q.jpg","url":"http:\/\/\/farm4.staticflickr.com\/3218\/3108651902_55dd08cd5c.jpg"}},{"type":"Feature","geometry":{"type":"Point","coordinates":[-73.990741,40.73547]},"properties":{"title":"NYC_Nov08_4228","marker-color":"#cd9455","marker-size":"small","marker-symbol":"circle","image":"http:\/\/\/farm4.staticflickr.com\/3036\/3108631198_f14f77fb23_q.jpg","url":"http:\/\/\/farm4.staticflickr.com\/3036\/3108631198_f14f77fb23.jpg"}},{"type":"Feature","geometry":{"type":"Point","coordinates":[-73.990741,40.73547]},"properties":{"title":"NYC_Nov08_4225","marker-color":"#cd9455","marker-size":"small","marker-symbol":"circle","image":"http:\/\/\/farm4.staticflickr.com\/3209\/3108619998_29a4d434bb_q.jpg","url":"http:\/\/\/farm4.staticflickr.com\/3209\/3108619998_29a4d434bb.jpg"}},{"type":"Feature","geometry":{"type":"Point","coordinates":[-73.990741,40.73547]},"properties":{"title":"NYC_Nov08_4224","marker-color":"#cd9455","marker-size":"small","marker-symbol":"circle","image":"http:\/\/\/farm4.staticflickr.com\/3291\/3107783517_1b37a5ea8e_q.jpg","url":"http:\/\/\/farm4.staticflickr.com\/3291\/3107783517_1b37a5ea8e.jpg"}},{"type":"Feature","geometry":{"type":"Point","coordinates":[-73.990741,40.73547]},"properties":{"title":"NYC_Nov08_4231","marker-color":"#cd9455","marker-size":"small","marker-symbol":"circle","image":"http:\/\/\/farm4.staticflickr.com\/3122\/3108643392_34750e1af4_q.jpg","url":"http:\/\/\/farm4.staticflickr.com\/3122\/3108643392_34750e1af4.jpg"}},{"type":"Feature","geometry":{"type":"Point","coordinates":[-73.990741,40.73547]},"properties":{"title":"NYC_Nov08_4223","marker-color":"#cd9455","marker-size":"small","marker-symbol":"circle","image":"http:\/\/\/farm4.staticflickr.com\/3203\/3107779059_a97a2a3995_q.jpg","url":"http:\/\/\/farm4.staticflickr.com\/3203\/3107779059_a97a2a3995.jpg"}},{"type":"Feature","geometry":{"type":"Point","coordinates":[-73.990741,40.73547]},"properties":{"title":"NYC_Nov08_4232","marker-color":"#cd9455","marker-size":"small","marker-symbol":"circle","image":"http:\/\/\/farm4.staticflickr.com\/3075\/3108647542_bdb6d904d2_q.jpg","url":"http:\/\/\/farm4.staticflickr.com\/3075\/3108647542_bdb6d904d2.jpg"}},{"type":"Feature","geometry":{"type":"Point","coordinates":[-73.990607,40.724038]},"properties":{"title":"Dinner May 16, 2008","marker-color":"#cd9455","marker-size":"small","marker-symbol":"circle","image":"http:\/\/\/farm4.staticflickr.com\/3047\/2499259123_65128d096d_q.jpg","url":"http:\/\/\/farm4.staticflickr.com\/3047\/2499259123_65128d096d.jpg"}},{"type":"Feature","geometry":{"type":"Point","coordinates":[-73.990607,40.724038]},"properties":{"title":"Dinner May 24, 2008","marker-color":"#cd9455","marker-size":"small","marker-symbol":"circle","image":"http:\/\/\/farm3.staticflickr.com\/2381\/2519299373_0fba79e370_q.jpg","url":"http:\/\/\/farm3.staticflickr.com\/2381\/2519299373_0fba79e370.jpg"}},{"type":"Feature","geometry":{"type":"Point","coordinates":[-73.990607,40.724038]},"properties":{"title":"Dinner May 14, 2008","marker-color":"#cd9455","marker-size":"small","marker-symbol":"circle","image":"http:\/\/\/farm4.staticflickr.com\/3260\/2494740896_8fdc5acdef_q.jpg","url":"http:\/\/\/farm4.staticflickr.com\/3260\/2494740896_8fdc5acdef.jpg"}},{"type":"Feature","geometry":{"type":"Point","coordinates":[-73.991167,40.735833]},"properties":{"title":"Organic Plants","marker-color":"#cd9455","marker-size":"small","marker-symbol":"circle","image":"http:\/\/\/farm4.staticflickr.com\/3015\/5845786309_29f6f8eae4_q.jpg","url":"http:\/\/\/farm4.staticflickr.com\/3015\/5845786309_29f6f8eae4.jpg"}},{"type":"Feature","geometry":{"type":"Point","coordinates":[-73.998681,40.734189]},"properties":{"title":"bathroom renovation","marker-color":"#cd9455","marker-size":"small","marker-symbol":"circle","image":"http:\/\/\/farm3.staticflickr.com\/2173\/2193885584_ca2718111c_q.jpg","url":"http:\/\/\/farm3.staticflickr.com\/2173\/2193885584_ca2718111c.jpg"}},{"type":"Feature","geometry":{"type":"Point","coordinates":[-73.998681,40.734189]},"properties":{"title":"bathroom renovation","marker-color":"#cd9455","marker-size":"small","marker-symbol":"circle","image":"http:\/\/\/farm3.staticflickr.com\/2350\/2193094973_08555a198c_q.jpg","url":"http:\/\/\/farm3.staticflickr.com\/2350\/2193094973_08555a198c.jpg"}},{"type":"Feature","geometry":{"type":"Point","coordinates":[-73.999167,40.733833]},"properties":{"title":"organic organic organic","marker-color":"#cd9455","marker-size":"small","marker-symbol":"circle","image":"http:\/\/\/farm6.staticflickr.com\/5087\/5232783810_60063cec69_q.jpg","url":"http:\/\/\/farm6.staticflickr.com\/5087\/5232783810_60063cec69.jpg"}},{"type":"Feature","geometry":{"type":"Point","coordinates":[-73.991,40.736]},"properties":{"title":"Cayuga organics' polenta rocks","marker-color":"#cd9455","marker-size":"small","marker-symbol":"circle","image":"http:\/\/\/farm6.staticflickr.com\/5140\/5585435954_d6a28d21f3_q.jpg","url":"http:\/\/\/farm6.staticflickr.com\/5140\/5585435954_d6a28d21f3.jpg"}},{"type":"Feature","geometry":{"type":"Point","coordinates":[-74.000664,40.7285]},"properties":{"title":"Organic Street Sign","marker-color":"#cd9455","marker-size":"small","marker-symbol":"circle","image":"http:\/\/\/farm9.staticflickr.com\/8255\/8757531561_3c3d1e5793_q.jpg","url":"http:\/\/\/farm9.staticflickr.com\/8255\/8757531561_3c3d1e5793.jpg"}},{"type":"Feature","geometry":{"type":"Point","coordinates":[-73.991167,40.736333]},"properties":{"title":"Organic","marker-color":"#cd9455","marker-size":"small","marker-symbol":"circle","image":"http:\/\/\/farm8.staticflickr.com\/7293\/8743217343_b100449a12_q.jpg","url":"http:\/\/\/farm8.staticflickr.com\/7293\/8743217343_b100449a12.jpg"}},{"type":"Feature","geometry":{"type":"Point","coordinates":[-73.990902,40.736266]},"properties":{"title":"organic market","marker-color":"#cd9455","marker-size":"small","marker-symbol":"circle","image":"http:\/\/\/farm4.staticflickr.com\/3029\/2939647340_2421ca410e_q.jpg","url":"http:\/\/\/farm4.staticflickr.com\/3029\/2939647340_2421ca410e.jpg"}},{"type":"Feature","geometry":{"type":"Point","coordinates":[-73.990902,40.736266]},"properties":{"title":"organic market","marker-color":"#cd9455","marker-size":"small","marker-symbol":"circle","image":"http:\/\/\/farm4.staticflickr.com\/3253\/2939645088_89ef98fc7c_q.jpg","url":"http:\/\/\/farm4.staticflickr.com\/3253\/2939645088_89ef98fc7c.jpg"}},{"type":"Feature","geometry":{"type":"Point","coordinates":[-73.990902,40.736266]},"properties":{"title":"organic market","marker-color":"#cd9455","marker-size":"small","marker-symbol":"circle","image":"http:\/\/\/farm4.staticflickr.com\/3202\/2939646288_2f62f1076c_q.jpg","url":"http:\/\/\/farm4.staticflickr.com\/3202\/2939646288_2f62f1076c.jpg"}},{"type":"Feature","geometry":{"type":"Point","coordinates":[-73.990677,40.73627]},"properties":{"title":"Apples","marker-color":"#cd9455","marker-size":"small","marker-symbol":"circle","image":"http:\/\/\/farm3.staticflickr.com\/2484\/3908862698_1cd12d6162_q.jpg","url":"http:\/\/\/farm3.staticflickr.com\/2484\/3908862698_1cd12d6162.jpg"}},{"type":"Feature","geometry":{"type":"Point","coordinates":[-73.990677,40.73627]},"properties":{"title":"Radishes","marker-color":"#cd9455","marker-size":"small","marker-symbol":"circle","image":"http:\/\/\/farm4.staticflickr.com\/3489\/3908859694_b08dd12ec9_q.jpg","url":"http:\/\/\/farm4.staticflickr.com\/3489\/3908859694_b08dd12ec9.jpg"}},{"type":"Feature","geometry":{"type":"Point","coordinates":[-73.990559,40.736526]},"properties":{"title":"#market #food #organic #newyork #newyorkcity #carrot #colours #photo #photography #pic #picture","marker-color":"#cd9455","marker-size":"small","marker-symbol":"circle","image":"http:\/\/\/farm4.staticflickr.com\/3686\/9430661218_ec2621c9ef_q.jpg","url":"http:\/\/\/farm4.staticflickr.com\/3686\/9430661218_ec2621c9ef.jpg"}},{"type":"Feature","geometry":{"type":"Point","coordinates":[-73.990559,40.736526]},"properties":{"title":"Post Irene NYC struggling to deal with lower than usual stocks of single source organic hand reared ostrich eggs","marker-color":"#cd9455","marker-size":"small","marker-symbol":"circle","image":"http:\/\/\/farm7.staticflickr.com\/6079\/6094079862_b4deeacd34_q.jpg","url":"http:\/\/\/farm7.staticflickr.com\/6079\/6094079862_b4deeacd34.jpg"}},{"type":"Feature","geometry":{"type":"Point","coordinates":[-73.99042,40.736502]},"properties":{"title":"Crazy Hot","marker-color":"#cd9455","marker-size":"small","marker-symbol":"circle","image":"http:\/\/\/farm9.staticflickr.com\/8456\/8005788277_cd7d7e105e_q.jpg","url":"http:\/\/\/farm9.staticflickr.com\/8456\/8005788277_cd7d7e105e.jpg"}},{"type":"Feature","geometry":{"type":"Point","coordinates":[-73.990383,40.73658]},"properties":{"title":"An Apple a Day","marker-color":"#cd9455","marker-size":"small","marker-symbol":"circle","image":"http:\/\/\/farm4.staticflickr.com\/3154\/3016613831_8954f2c665_q.jpg","url":"http:\/\/\/farm4.staticflickr.com\/3154\/3016613831_8954f2c665.jpg"}},{"type":"Feature","geometry":{"type":"Point","coordinates":[-73.990383,40.73658]},"properties":{"title":"Delicious","marker-color":"#cd9455","marker-size":"small","marker-symbol":"circle","image":"http:\/\/\/farm4.staticflickr.com\/3040\/3016613103_88a03d8e36_q.jpg","url":"http:\/\/\/farm4.staticflickr.com\/3040\/3016613103_88a03d8e36.jpg"}},{"type":"Feature","geometry":{"type":"Point","coordinates":[-73.99043,40.736693]},"properties":{"title":"Union Square Farmer's Market.","marker-color":"#cd9455","marker-size":"small","marker-symbol":"circle","image":"http:\/\/\/farm2.staticflickr.com\/1333\/541344852_7c861f47ab_q.jpg","url":"http:\/\/\/farm2.staticflickr.com\/1333\/541344852_7c861f47ab.jpg"}},{"type":"Feature","geometry":{"type":"Point","coordinates":[-73.990446,40.736766]},"properties":{"title":"Painting New York ... with sand by Joe Mangrum","marker-color":"#cd9455","marker-size":"small","marker-symbol":"circle","image":"http:\/\/\/farm4.staticflickr.com\/3374\/4616929395_5bae0cbbe0_q.jpg","url":"http:\/\/\/farm4.staticflickr.com\/3374\/4616929395_5bae0cbbe0.jpg"}},{"type":"Feature","geometry":{"type":"Point","coordinates":[-73.990446,40.736766]},"properties":{"title":"Painting New York ... with sand by Joe Mangrum","marker-color":"#cd9455","marker-size":"small","marker-symbol":"circle","image":"http:\/\/\/farm5.staticflickr.com\/4005\/4617535264_5ce45d44de_q.jpg","url":"http:\/\/\/farm5.staticflickr.com\/4005\/4617535264_5ce45d44de.jpg"}},{"type":"Feature","geometry":{"type":"Point","coordinates":[-73.990446,40.736766]},"properties":{"title":"Painting New York ... with sand by Joe Mangrum","marker-color":"#cd9455","marker-size":"small","marker-symbol":"circle","image":"http:\/\/\/farm5.staticflickr.com\/4023\/4616926417_da059fa8f8_q.jpg","url":"http:\/\/\/farm5.staticflickr.com\/4023\/4616926417_da059fa8f8.jpg"}},{"type":"Feature","geometry":{"type":"Point","coordinates":[-73.990446,40.736766]},"properties":{"title":"Painting New York ... with sand by Joe Mangrum","marker-color":"#cd9455","marker-size":"small","marker-symbol":"circle","image":"http:\/\/\/farm4.staticflickr.com\/3361\/4617532998_ab2c01ee89_q.jpg","url":"http:\/\/\/farm4.staticflickr.com\/3361\/4617532998_ab2c01ee89.jpg"}},{"type":"Feature","geometry":{"type":"Point","coordinates":[-73.990446,40.736766]},"properties":{"title":"Painting New York ... with sand by Joe Mangrum","marker-color":"#cd9455","marker-size":"small","marker-symbol":"circle","image":"http:\/\/\/farm5.staticflickr.com\/4069\/4616924837_696d9d1272_q.jpg","url":"http:\/\/\/farm5.staticflickr.com\/4069\/4616924837_696d9d1272.jpg"}},{"type":"Feature","geometry":{"type":"Point","coordinates":[-73.990446,40.736766]},"properties":{"title":"Painting New York ... with sand by Joe Mangrum","marker-color":"#cd9455","marker-size":"small","marker-symbol":"circle","image":"http:\/\/\/farm5.staticflickr.com\/4064\/4617536910_b639aacf23_q.jpg","url":"http:\/\/\/farm5.staticflickr.com\/4064\/4617536910_b639aacf23.jpg"}},{"type":"Feature","geometry":{"type":"Point","coordinates":[-73.990446,40.736766]},"properties":{"title":"Painting New York ... with sand by Joe Mangrum","marker-color":"#cd9455","marker-size":"small","marker-symbol":"circle","image":"http:\/\/\/farm5.staticflickr.com\/4001\/4616914029_7d7b28ab69_q.jpg","url":"http:\/\/\/farm5.staticflickr.com\/4001\/4616914029_7d7b28ab69.jpg"}},{"type":"Feature","geometry":{"type":"Point","coordinates":[-73.990446,40.736766]},"properties":{"title":"Painting New York ... with sand by Joe Mangrum","marker-color":"#cd9455","marker-size":"small","marker-symbol":"circle","image":"http:\/\/\/farm5.staticflickr.com\/4003\/4616915939_e09b151256_q.jpg","url":"http:\/\/\/farm5.staticflickr.com\/4003\/4616915939_e09b151256.jpg"}},{"type":"Feature","geometry":{"type":"Point","coordinates":[-73.990446,40.736766]},"properties":{"title":"Painting New York ... with sand by Joe Mangrum","marker-color":"#cd9455","marker-size":"small","marker-symbol":"circle","image":"http:\/\/\/farm5.staticflickr.com\/4028\/4616912237_2bf5b052cc_q.jpg","url":"http:\/\/\/farm5.staticflickr.com\/4028\/4616912237_2bf5b052cc.jpg"}},{"type":"Feature","geometry":{"type":"Point","coordinates":[-74.000644,40.725811]},"properties":{"title":"Bread Alone Sold Here","marker-color":"#cd9455","marker-size":"small","marker-symbol":"circle","image":"http:\/\/\/farm9.staticflickr.com\/8063\/8230463181_e457367362_q.jpg","url":"http:\/\/\/farm9.staticflickr.com\/8063\/8230463181_e457367362.jpg"}},{"type":"Feature","geometry":{"type":"Point","coordinates":[-73.997077,40.737018]},"properties":{"title":"Decorations","marker-color":"#cd9455","marker-size":"small","marker-symbol":"circle","image":"http:\/\/\/farm5.staticflickr.com\/4147\/5085660923_1886a6f5ae_q.jpg","url":"http:\/\/\/farm5.staticflickr.com\/4147\/5085660923_1886a6f5ae.jpg"}},{"type":"Feature","geometry":{"type":"Point","coordinates":[-73.987866,40.724213]},"properties":{"title":"Photo0014","marker-color":"#cd9455","marker-size":"small","marker-symbol":"circle","image":"http:\/\/\/farm1.staticflickr.com\/131\/421191064_df880ef8b0_q.jpg","url":"http:\/\/\/farm1.staticflickr.com\/131\/421191064_df880ef8b0.jpg"}},{"type":"Feature","geometry":{"type":"Point","coordinates":[-73.997309,40.737107]},"properties":{"title":"Cheesec @ Gusto Organics","marker-color":"#cd9455","marker-size":"small","marker-symbol":"circle","image":"http:\/\/\/farm8.staticflickr.com\/7048\/8691148600_5137c727d2_q.jpg","url":"http:\/\/\/farm8.staticflickr.com\/7048\/8691148600_5137c727d2.jpg"}},{"type":"Feature","geometry":{"type":"Point","coordinates":[-73.98897,40.72302]},"properties":{"title":"My first organic beer (brown ale)","marker-color":"#cd9455","marker-size":"small","marker-symbol":"circle","image":"http:\/\/\/farm4.staticflickr.com\/3132\/3213812537_1066c5e03f_q.jpg","url":"http:\/\/\/farm4.staticflickr.com\/3132\/3213812537_1066c5e03f.jpg"}},{"type":"Feature","geometry":{"type":"Point","coordinates":[-73.990581,40.737445]},"properties":{"title":"organic venezuelan coffee? Wtf?","marker-color":"#cd9455","marker-size":"small","marker-symbol":"circle","image":"http:\/\/\/farm1.staticflickr.com\/29\/103037314_1f3e01c60f_q.jpg","url":"http:\/\/\/farm1.staticflickr.com\/29\/103037314_1f3e01c60f.jpg"}},{"type":"Feature","geometry":{"type":"Point","coordinates":[-73.99205,40.738189]},"properties":{"title":"Mercedes on 5th Avenue and 17th St Manhattan","marker-color":"#cd9455","marker-size":"small","marker-symbol":"circle","image":"http:\/\/\/farm1.staticflickr.com\/94\/270722454_874e5941dc_q.jpg","url":"http:\/\/\/farm1.staticflickr.com\/94\/270722454_874e5941dc.jpg"}},{"type":"Feature","geometry":{"type":"Point","coordinates":[-73.98483,40.728494]},"properties":{"title":"The Organic Grill, East Village","marker-color":"#cd9455","marker-size":"small","marker-symbol":"circle","image":"http:\/\/\/farm2.staticflickr.com\/1085\/5117603387_e591735b75_q.jpg","url":"http:\/\/\/farm2.staticflickr.com\/1085\/5117603387_e591735b75.jpg"}},{"type":"Feature","geometry":{"type":"Point","coordinates":[-73.997939,40.737705]},"properties":{"title":"BURLAP + GOLD LEAF (inlaid)","marker-color":"#cd9455","marker-size":"small","marker-symbol":"circle","image":"http:\/\/\/farm9.staticflickr.com\/8199\/8234266168_646c2eb4fa_q.jpg","url":"http:\/\/\/farm9.staticflickr.com\/8199\/8234266168_646c2eb4fa.jpg"}},{"type":"Feature","geometry":{"type":"Point","coordinates":[-73.997939,40.737705]},"properties":{"title":"BURLAP + CERA WAX (metallic)","marker-color":"#cd9455","marker-size":"small","marker-symbol":"circle","image":"http:\/\/\/farm9.staticflickr.com\/8058\/8233201605_0f0df345af_q.jpg","url":"http:\/\/\/farm9.staticflickr.com\/8058\/8233201605_0f0df345af.jpg"}},{"type":"Feature","geometry":{"type":"Point","coordinates":[-73.997939,40.737705]},"properties":{"title":"BURLAP + VENETIAN PLASTER","marker-color":"#cd9455","marker-size":"small","marker-symbol":"circle","image":"http:\/\/\/farm9.staticflickr.com\/8483\/8234264566_2010ef502c_q.jpg","url":"http:\/\/\/farm9.staticflickr.com\/8483\/8234264566_2010ef502c.jpg"}},{"type":"Feature","geometry":{"type":"Point","coordinates":[-73.997939,40.737705]},"properties":{"title":"BURLAP + SILVER LEAF + GLAZE","marker-color":"#cd9455","marker-size":"small","marker-symbol":"circle","image":"http:\/\/\/farm9.staticflickr.com\/8069\/8233199289_eddbc41dd3_q.jpg","url":"http:\/\/\/farm9.staticflickr.com\/8069\/8233199289_eddbc41dd3.jpg"}},{"type":"Feature","geometry":{"type":"Point","coordinates":[-73.997939,40.737705]},"properties":{"title":"BURLAP + GOLD LEAF (inlaid)","marker-color":"#cd9455","marker-size":"small","marker-symbol":"circle","image":"http:\/\/\/farm9.staticflickr.com\/8066\/8234264984_12a12349d6_q.jpg","url":"http:\/\/\/farm9.staticflickr.com\/8066\/8234264984_12a12349d6.jpg"}},{"type":"Feature","geometry":{"type":"Point","coordinates":[-73.997939,40.737705]},"properties":{"title":"BURLAP + SILVER LEAF","marker-color":"#cd9455","marker-size":"small","marker-symbol":"circle","image":"http:\/\/\/farm9.staticflickr.com\/8480\/8233200785_79ae6d2c07_q.jpg","url":"http:\/\/\/farm9.staticflickr.com\/8480\/8233200785_79ae6d2c07.jpg"}},{"type":"Feature","geometry":{"type":"Point","coordinates":[-73.997939,40.737705]},"properties":{"title":"BURLAP + SILVER LEAG + GLAZE","marker-color":"#cd9455","marker-size":"small","marker-symbol":"circle","image":"http:\/\/\/farm9.staticflickr.com\/8066\/8233199953_598a58677b_q.jpg","url":"http:\/\/\/farm9.staticflickr.com\/8066\/8233199953_598a58677b.jpg"}},{"type":"Feature","geometry":{"type":"Point","coordinates":[-73.997939,40.737705]},"properties":{"title":"BURLAP COLLECTION","marker-color":"#cd9455","marker-size":"small","marker-symbol":"circle","image":"http:\/\/\/farm9.staticflickr.com\/8490\/8233204321_37c09fe263_q.jpg","url":"http:\/\/\/farm9.staticflickr.com\/8490\/8233204321_37c09fe263.jpg"}},{"type":"Feature","geometry":{"type":"Point","coordinates":[-73.997939,40.737705]},"properties":{"title":"BURLAP + GOLD LEAF","marker-color":"#cd9455","marker-size":"small","marker-symbol":"circle","image":"http:\/\/\/farm9.staticflickr.com\/8199\/8233198845_42de6eb286_q.jpg","url":"http:\/\/\/farm9.staticflickr.com\/8199\/8233198845_42de6eb286.jpg"}},{"type":"Feature","geometry":{"type":"Point","coordinates":[-73.989551,40.737769]},"properties":{"title":"Fried organic chicken, wild spinach, basil and hot sauce butter","marker-color":"#cd9455","marker-size":"small","marker-symbol":"circle","image":"http:\/\/\/farm7.staticflickr.com\/6040\/5895238555_b5fcdeea0a_q.jpg","url":"http:\/\/\/farm7.staticflickr.com\/6040\/5895238555_b5fcdeea0a.jpg"}},{"type":"Feature","geometry":{"type":"Point","coordinates":[-73.98867,40.722179]},"properties":{"title":"Snacky Time!","marker-color":"#cd9455","marker-size":"small","marker-symbol":"circle","image":"http:\/\/\/farm6.staticflickr.com\/5222\/5728196016_d2fc72d48d_q.jpg","url":"http:\/\/\/farm6.staticflickr.com\/5222\/5728196016_d2fc72d48d.jpg"}},{"type":"Feature","geometry":{"type":"Point","coordinates":[-73.990194,40.738571]},"properties":{"title":"19th & Broadway Porsche Boxster","marker-color":"#cd9455","marker-size":"small","marker-symbol":"circle","image":"http:\/\/\/farm1.staticflickr.com\/42\/102796728_b0d9e424a8_q.jpg","url":"http:\/\/\/farm1.staticflickr.com\/42\/102796728_b0d9e424a8.jpg"}},{"type":"Feature","geometry":{"type":"Point","coordinates":[-73.987641,40.721794]},"properties":{"title":"inside EarthMatters Organic Market & Restaurant","marker-color":"#cd9455","marker-size":"small","marker-symbol":"circle","image":"http:\/\/\/farm8.staticflickr.com\/7251\/7768091274_737739aa91_q.jpg","url":"http:\/\/\/farm8.staticflickr.com\/7251\/7768091274_737739aa91.jpg"}},{"type":"Feature","geometry":{"type":"Point","coordinates":[-74.000465,40.737178]},"properties":{"title":"Wheat berry salad with feta, Cape Cod dried cranberries, organic greens","marker-color":"#cd9455","marker-size":"small","marker-symbol":"circle","image":"http:\/\/\/farm9.staticflickr.com\/8050\/8115774203_f98dc0ceff_q.jpg","url":"http:\/\/\/farm9.staticflickr.com\/8050\/8115774203_f98dc0ceff.jpg"}},{"type":"Feature","geometry":{"type":"Point","coordinates":[-73.983623,40.729807]},"properties":{"title":"Reflections of 1st Avenue East Village Manhattan in 2005 BMW Z4","marker-color":"#cd9455","marker-size":"small","marker-symbol":"circle","image":"http:\/\/\/farm3.staticflickr.com\/2258\/2204944181_6144818874_q.jpg","url":"http:\/\/\/farm3.staticflickr.com\/2258\/2204944181_6144818874.jpg"}},{"type":"Feature","geometry":{"type":"Point","coordinates":[-73.9855,40.723]},"properties":{"title":"Supper - Organic Pancakes","marker-color":"#cd9455","marker-size":"small","marker-symbol":"circle","image":"http:\/\/\/farm4.staticflickr.com\/3023\/3050856236_d63ce86e21_q.jpg","url":"http:\/\/\/farm4.staticflickr.com\/3023\/3050856236_d63ce86e21.jpg"}},{"type":"Feature","geometry":{"type":"Point","coordinates":[-73.990334,40.739833]},"properties":{"title":"coconut juice from Rhong Tiam","marker-color":"#cd9455","marker-size":"small","marker-symbol":"circle","image":"http:\/\/\/farm6.staticflickr.com\/5241\/5370326213_0003883cb6_q.jpg","url":"http:\/\/\/farm6.staticflickr.com\/5241\/5370326213_0003883cb6.jpg"}},{"type":"Feature","geometry":{"type":"Point","coordinates":[-73.984873,40.723535]},"properties":{"title":"At Organic Modernism","marker-color":"#cd9455","marker-size":"small","marker-symbol":"circle","image":"http:\/\/\/farm8.staticflickr.com\/7246\/7569748006_cff8b93768_q.jpg","url":"http:\/\/\/farm8.staticflickr.com\/7246\/7569748006_cff8b93768.jpg"}},{"type":"Feature","geometry":{"type":"Point","coordinates":[-74.0005,40.721]},"properties":{"title":"Squab with little potato gnocchi, broad beans, peas and tartufo marzolino, black truffle by Valentino Marcattilii","marker-color":"#cd9455","marker-size":"small","marker-symbol":"circle","image":"http:\/\/\/farm9.staticflickr.com\/8009\/7236311950_70e5a066e1_q.jpg","url":"http:\/\/\/farm9.staticflickr.com\/8009\/7236311950_70e5a066e1.jpg"}},{"type":"Feature","geometry":{"type":"Point","coordinates":[-74.0005,40.721]},"properties":{"title":"Tuna, onion and beans by Valentino Marcattilii","marker-color":"#cd9455","marker-size":"small","marker-symbol":"circle","image":"http:\/\/\/farm8.staticflickr.com\/7220\/7236308152_c386975bc4_q.jpg","url":"http:\/\/\/farm8.staticflickr.com\/7220\/7236308152_c386975bc4.jpg"}},{"type":"Feature","geometry":{"type":"Point","coordinates":[-74.002,40.7375]},"properties":{"title":"The Tea Set, W 12th St","marker-color":"#cd9455","marker-size":"small","marker-symbol":"circle","image":"http:\/\/\/farm4.staticflickr.com\/3514\/5764871877_f73023a549_q.jpg","url":"http:\/\/\/farm4.staticflickr.com\/3514\/5764871877_f73023a549.jpg"}},{"type":"Feature","geometry":{"type":"Point","coordinates":[-73.994703,40.741141]},"properties":{"title":"Good dirt","marker-color":"#cd9455","marker-size":"small","marker-symbol":"circle","image":"http:\/\/\/farm3.staticflickr.com\/2785\/5854692013_1f07b1027e_q.jpg","url":"http:\/\/\/farm3.staticflickr.com\/2785\/5854692013_1f07b1027e.jpg"}},{"type":"Feature","geometry":{"type":"Point","coordinates":[-73.989894,40.718599]},"properties":{"title":"organic rice crispies treats 10.30.2007","marker-color":"#cd9455","marker-size":"small","marker-symbol":"circle","image":"http:\/\/\/farm3.staticflickr.com\/2375\/1808465687_17fc048a81_q.jpg","url":"http:\/\/\/farm3.staticflickr.com\/2375\/1808465687_17fc048a81.jpg"}},{"type":"Feature","geometry":{"type":"Point","coordinates":[-73.989894,40.718599]},"properties":{"title":"organic rice crispies treats 10.30.2007","marker-color":"#cd9455","marker-size":"small","marker-symbol":"circle","image":"http:\/\/\/farm3.staticflickr.com\/2249\/1809307160_fbcce20cc1_q.jpg","url":"http:\/\/\/farm3.staticflickr.com\/2249\/1809307160_fbcce20cc1.jpg"}},{"type":"Feature","geometry":{"type":"Point","coordinates":[-73.989894,40.718599]},"properties":{"title":"organic rice crispies treats 10.30.2007","marker-color":"#cd9455","marker-size":"small","marker-symbol":"circle","image":"http:\/\/\/farm3.staticflickr.com\/2255\/1808468803_401916c01e_q.jpg","url":"http:\/\/\/farm3.staticflickr.com\/2255\/1808468803_401916c01e.jpg"}},{"type":"Feature","geometry":{"type":"Point","coordinates":[-73.989894,40.718599]},"properties":{"title":"making organic rice crispies treats 10.30.2007","marker-color":"#cd9455","marker-size":"small","marker-symbol":"circle","image":"http:\/\/\/farm3.staticflickr.com\/2399\/1808463089_b0af6b587b_q.jpg","url":"http:\/\/\/farm3.staticflickr.com\/2399\/1808463089_b0af6b587b.jpg"}},{"type":"Feature","geometry":{"type":"Point","coordinates":[-74.00161,40.720957]},"properties":{"title":"Soho Lincoln","marker-color":"#cd9455","marker-size":"small","marker-symbol":"circle","image":"http:\/\/\/farm5.staticflickr.com\/4002\/5148061427_93efe08094_q.jpg","url":"http:\/\/\/farm5.staticflickr.com\/4002\/5148061427_93efe08094.jpg"}},{"type":"Feature","geometry":{"type":"Point","coordinates":[-73.99042,40.718115]},"properties":{"title":"Dinner May 23, 2008","marker-color":"#cd9455","marker-size":"small","marker-symbol":"circle","image":"http:\/\/\/farm3.staticflickr.com\/2033\/2516766667_9e8265dd7d_q.jpg","url":"http:\/\/\/farm3.staticflickr.com\/2033\/2516766667_9e8265dd7d.jpg"}},{"type":"Feature","geometry":{"type":"Point","coordinates":[-73.99042,40.718115]},"properties":{"title":"Dinner May 23, 2008","marker-color":"#cd9455","marker-size":"small","marker-symbol":"circle","image":"http:\/\/\/farm4.staticflickr.com\/3139\/2517590688_7a4a7a7864_q.jpg","url":"http:\/\/\/farm4.staticflickr.com\/3139\/2517590688_7a4a7a7864.jpg"}},{"type":"Feature","geometry":{"type":"Point","coordinates":[-73.99042,40.718115]},"properties":{"title":"Dinner May 23, 2008","marker-color":"#cd9455","marker-size":"small","marker-symbol":"circle","image":"http:\/\/\/farm3.staticflickr.com\/2012\/2516764563_fce2202b10_q.jpg","url":"http:\/\/\/farm3.staticflickr.com\/2012\/2516764563_fce2202b10.jpg"}},{"type":"Feature","geometry":{"type":"Point","coordinates":[-73.99042,40.718115]},"properties":{"title":"Dinner May 23, 2008","marker-color":"#cd9455","marker-size":"small","marker-symbol":"circle","image":"http:\/\/\/farm4.staticflickr.com\/3092\/2516765513_41c327c577_q.jpg","url":"http:\/\/\/farm4.staticflickr.com\/3092\/2516765513_41c327c577.jpg"}},{"type":"Feature","geometry":{"type":"Point","coordinates":[-73.99042,40.718115]},"properties":{"title":"Dinner May 23, 2008","marker-color":"#cd9455","marker-size":"small","marker-symbol":"circle","image":"http:\/\/\/farm3.staticflickr.com\/2288\/2516768705_0fca169098_q.jpg","url":"http:\/\/\/farm3.staticflickr.com\/2288\/2516768705_0fca169098.jpg"}},{"type":"Feature","geometry":{"type":"Point","coordinates":[-74.003759,40.736958]},"properties":{"title":"Organic field-harvested and line-caught menu","marker-color":"#cd9455","marker-size":"small","marker-symbol":"circle","image":"http:\/\/\/farm6.staticflickr.com\/5099\/5571951704_7baa236793_q.jpg","url":"http:\/\/\/farm6.staticflickr.com\/5099\/5571951704_7baa236793.jpg"}},{"type":"Feature","geometry":{"type":"Point","coordinates":[-73.981533,40.726477]},"properties":{"title":"Chardonnay unoaked organic Spanish by Senorio de Ayud @ Douglas Tea Rooms","marker-color":"#cd9455","marker-size":"small","marker-symbol":"circle","image":"http:\/\/\/farm3.staticflickr.com\/2855\/8771136836_1b9a49d63a_q.jpg","url":"http:\/\/\/farm3.staticflickr.com\/2855\/8771136836_1b9a49d63a.jpg"}},{"type":"Feature","geometry":{"type":"Point","coordinates":[-74.0055,40.734664]},"properties":{"title":"Organic","marker-color":"#cd9455","marker-size":"small","marker-symbol":"circle","image":"http:\/\/\/farm9.staticflickr.com\/8494\/8288208648_a35d5efe1f_q.jpg","url":"http:\/\/\/farm9.staticflickr.com\/8494\/8288208648_a35d5efe1f.jpg"}},{"type":"Feature","geometry":{"type":"Point","coordinates":[-73.989433,40.741861]},"properties":{"title":"\"Beautiful tomatoes\" #ugly_heirloom_tomatoes #produce #vegetables #organic #market #nyc","marker-color":"#cd9455","marker-size":"small","marker-symbol":"circle","image":"http:\/\/\/farm9.staticflickr.com\/8395\/8607431775_50c9990c4e_q.jpg","url":"http:\/\/\/farm9.staticflickr.com\/8395\/8607431775_50c9990c4e.jpg"}},{"type":"Feature","geometry":{"type":"Point","coordinates":[-73.988682,40.741591]},"properties":{"title":"RED, YELLOW AND BLUE Monolithic Rope Sculpture (2013) by Orly Genger, Madison Square Park, New York City","marker-color":"#cd9455","marker-size":"small","marker-symbol":"circle","image":"http:\/\/\/farm4.staticflickr.com\/3829\/9383422525_8d68c0e804_q.jpg","url":"http:\/\/\/farm4.staticflickr.com\/3829\/9383422525_8d68c0e804.jpg"}},{"type":"Feature","geometry":{"type":"Point","coordinates":[-73.988682,40.741591]},"properties":{"title":"RED, YELLOW AND BLUE Monolithic Rope Sculpture (2013) by Orly Genger, Madison Square Park, New York City","marker-color":"#cd9455","marker-size":"small","marker-symbol":"circle","image":"http:\/\/\/farm3.staticflickr.com\/2876\/9386198934_0659207d77_q.jpg","url":"http:\/\/\/farm3.staticflickr.com\/2876\/9386198934_0659207d77.jpg"}},{"type":"Feature","geometry":{"type":"Point","coordinates":[-73.988682,40.741591]},"properties":{"title":"RED, YELLOW AND BLUE Monolithic Rope Sculpture (2013) by Orly Genger, Madison Square Park, New York City","marker-color":"#cd9455","marker-size":"small","marker-symbol":"circle","image":"http:\/\/\/farm3.staticflickr.com\/2823\/9383423265_fcf3a75527_q.jpg","url":"http:\/\/\/farm3.staticflickr.com\/2823\/9383423265_fcf3a75527.jpg"}},{"type":"Feature","geometry":{"type":"Point","coordinates":[-73.988682,40.741591]},"properties":{"title":"RED, YELLOW AND BLUE Monolithic Rope Sculpture (2013) by Orly Genger, Madison Square Park, New York City","marker-color":"#cd9455","marker-size":"small","marker-symbol":"circle","image":"http:\/\/\/farm4.staticflickr.com\/3803\/9386200284_744a32bd20_q.jpg","url":"http:\/\/\/farm4.staticflickr.com\/3803\/9386200284_744a32bd20.jpg"}},{"type":"Feature","geometry":{"type":"Point","coordinates":[-73.99694,40.742324]},"properties":{"title":"Chelsea Organic, New York City, USA","marker-color":"#cd9455","marker-size":"small","marker-symbol":"circle","image":"http:\/\/\/farm6.staticflickr.com\/5203\/5316109303_72f5beba25_q.jpg","url":"http:\/\/\/farm6.staticflickr.com\/5203\/5316109303_72f5beba25.jpg"}},{"type":"Feature","geometry":{"type":"Point","coordinates":[-74.006631,40.731409]},"properties":{"title":"Takashi - Niku-Natto","marker-color":"#cd9455","marker-size":"small","marker-symbol":"circle","image":"http:\/\/\/farm6.staticflickr.com\/5272\/7179899792_f743c2e079_q.jpg","url":"http:\/\/\/farm6.staticflickr.com\/5272\/7179899792_f743c2e079.jpg"}},{"type":"Feature","geometry":{"type":"Point","coordinates":[-74.006631,40.731409]},"properties":{"title":"Takashi - Niku-Natto","marker-color":"#cd9455","marker-size":"small","marker-symbol":"circle","image":"http:\/\/\/farm8.staticflickr.com\/7102\/7179902094_d52b789e01_q.jpg","url":"http:\/\/\/farm8.staticflickr.com\/7102\/7179902094_d52b789e01.jpg"}},{"type":"Feature","geometry":{"type":"Point","coordinates":[-73.997075,40.742361]},"properties":{"title":"Old Chelsea","marker-color":"#cd9455","marker-size":"small","marker-symbol":"circle","image":"http:\/\/\/farm4.staticflickr.com\/3501\/3805300478_1bab789726_q.jpg","url":"http:\/\/\/farm4.staticflickr.com\/3501\/3805300478_1bab789726.jpg"}},{"type":"Feature","geometry":{"type":"Point","coordinates":[-74.00379,40.738337]},"properties":{"title":"Green Love. The only way I...","marker-color":"#cd9455","marker-size":"small","marker-symbol":"circle","image":"http:\/\/\/farm9.staticflickr.com\/8364\/8332880215_8141399fef_q.jpg","url":"http:\/\/\/farm9.staticflickr.com\/8364\/8332880215_8141399fef.jpg"}},{"type":"Feature","geometry":{"type":"Point","coordinates":[-74.004834,40.7225]},"properties":{"title":"Go Nowhere in Manhattan","marker-color":"#cd9455","marker-size":"small","marker-symbol":"circle","image":"http:\/\/\/farm8.staticflickr.com\/7232\/7273963786_b9f7d33200_q.jpg","url":"http:\/\/\/farm8.staticflickr.com\/7232\/7273963786_b9f7d33200.jpg"}},{"type":"Feature","geometry":{"type":"Point","coordinates":[-74.001535,40.740501]},"properties":{"title":"Organic","marker-color":"#cd9455","marker-size":"small","marker-symbol":"circle","image":"http:\/\/\/farm8.staticflickr.com\/7034\/6515418861_f89207b59d_q.jpg","url":"http:\/\/\/farm8.staticflickr.com\/7034\/6515418861_f89207b59d.jpg"}},{"type":"Feature","geometry":{"type":"Point","coordinates":[-73.98778,40.742087]},"properties":{"title":"RED, YELLOW AND BLUE Monolithic Rope Sculpture (2013) by Orly Genger, Madison Square Park, New York City","marker-color":"#cd9455","marker-size":"small","marker-symbol":"circle","image":"http:\/\/\/farm8.staticflickr.com\/7288\/9383570335_e3061e3f67_q.jpg","url":"http:\/\/\/farm8.staticflickr.com\/7288\/9383570335_e3061e3f67.jpg"}},{"type":"Feature","geometry":{"type":"Point","coordinates":[-73.98778,40.742087]},"properties":{"title":"RED, YELLOW AND BLUE Monolithic Rope Sculpture (2013) by Orly Genger, Madison Square Park, New York City","marker-color":"#cd9455","marker-size":"small","marker-symbol":"circle","image":"http:\/\/\/farm8.staticflickr.com\/7310\/9386345976_33945d9cb2_q.jpg","url":"http:\/\/\/farm8.staticflickr.com\/7310\/9386345976_33945d9cb2.jpg"}},{"type":"Feature","geometry":{"type":"Point","coordinates":[-73.98778,40.742087]},"properties":{"title":"RED, YELLOW AND BLUE Monolithic Rope Sculpture (2013) by Orly Genger, Madison Square Park, New York City","marker-color":"#cd9455","marker-size":"small","marker-symbol":"circle","image":"http:\/\/\/farm6.staticflickr.com\/5347\/9386345046_c4f370e7b2_q.jpg","url":"http:\/\/\/farm6.staticflickr.com\/5347\/9386345046_c4f370e7b2.jpg"}},{"type":"Feature","geometry":{"type":"Point","coordinates":[-73.98778,40.742087]},"properties":{"title":"RED, YELLOW AND BLUE Monolithic Rope Sculpture (2013) by Orly Genger, Madison Square Park, New York City","marker-color":"#cd9455","marker-size":"small","marker-symbol":"circle","image":"http:\/\/\/farm4.staticflickr.com\/3741\/9386347108_7de205488d_q.jpg","url":"http:\/\/\/farm4.staticflickr.com\/3741\/9386347108_7de205488d.jpg"}},{"type":"Feature","geometry":{"type":"Point","coordinates":[-73.9851,40.7191]},"properties":{"title":"jpj71","marker-color":"#cd9455","marker-size":"small","marker-symbol":"circle","image":"http:\/\/\/farm4.staticflickr.com\/3101\/2395915961_95aafac988_q.jpg","url":"http:\/\/\/farm4.staticflickr.com\/3101\/2395915961_95aafac988.jpg"}},{"type":"Feature","geometry":{"type":"Point","coordinates":[-73.987501,40.742103]},"properties":{"title":"NYC - Madison Square Park - Erratic","marker-color":"#cd9455","marker-size":"small","marker-symbol":"circle","image":"http:\/\/\/farm1.staticflickr.com\/244\/550456727_fc5f671e2d_q.jpg","url":"http:\/\/\/farm1.staticflickr.com\/244\/550456727_fc5f671e2d.jpg"}},{"type":"Feature","geometry":{"type":"Point","coordinates":[-73.988295,40.742583]},"properties":{"title":"RED, YELLOW AND BLUE Monolithic Rope Sculpture (2013) by Orly Genger, Madison Square Park, New York City","marker-color":"#cd9455","marker-size":"small","marker-symbol":"circle","image":"http:\/\/\/farm8.staticflickr.com\/7303\/9386439126_87f19390cb_q.jpg","url":"http:\/\/\/farm8.staticflickr.com\/7303\/9386439126_87f19390cb.jpg"}},{"type":"Feature","geometry":{"type":"Point","coordinates":[-73.988295,40.742583]},"properties":{"title":"RED, YELLOW AND BLUE Monolithic Rope Sculpture (2013) by Orly Genger, Madison Square Park, New York City","marker-color":"#cd9455","marker-size":"small","marker-symbol":"circle","image":"http:\/\/\/farm8.staticflickr.com\/7309\/9383660837_fccc3fafba_q.jpg","url":"http:\/\/\/farm8.staticflickr.com\/7309\/9383660837_fccc3fafba.jpg"}},{"type":"Feature","geometry":{"type":"Point","coordinates":[-73.988295,40.742583]},"properties":{"title":"RED, YELLOW AND BLUE Monolithic Rope Sculpture (2013) by Orly Genger, Madison Square Park, New York City","marker-color":"#cd9455","marker-size":"small","marker-symbol":"circle","image":"http:\/\/\/farm6.staticflickr.com\/5505\/9386435410_4f929712bd_q.jpg","url":"http:\/\/\/farm6.staticflickr.com\/5505\/9386435410_4f929712bd.jpg"}},{"type":"Feature","geometry":{"type":"Point","coordinates":[-73.988295,40.742583]},"properties":{"title":"RED, YELLOW AND BLUE Monolithic Rope Sculpture (2013) by Orly Genger, Madison Square Park, New York City","marker-color":"#cd9455","marker-size":"small","marker-symbol":"circle","image":"http:\/\/\/farm3.staticflickr.com\/2850\/9383659065_6318a37d37_q.jpg","url":"http:\/\/\/farm3.staticflickr.com\/2850\/9383659065_6318a37d37.jpg"}},{"type":"Feature","geometry":{"type":"Point","coordinates":[-73.988295,40.742583]},"properties":{"title":"RED, YELLOW AND BLUE Monolithic Rope Sculpture (2013) by Orly Genger, Madison Square Park, New York City","marker-color":"#cd9455","marker-size":"small","marker-symbol":"circle","image":"http:\/\/\/farm3.staticflickr.com\/2859\/9383659851_0fe402ed94_q.jpg","url":"http:\/\/\/farm3.staticflickr.com\/2859\/9383659851_0fe402ed94.jpg"}},{"type":"Feature","geometry":{"type":"Point","coordinates":[-74.003005,40.741274]},"properties":{"title":"OCC","marker-color":"#cd9455","marker-size":"small","marker-symbol":"circle","image":"http:\/\/\/farm5.staticflickr.com\/4072\/5154901138_71d7edd2eb_q.jpg","url":"http:\/\/\/farm5.staticflickr.com\/4072\/5154901138_71d7edd2eb.jpg"}},{"type":"Feature","geometry":{"type":"Point","coordinates":[-73.984251,40.741502]},"properties":{"title":"First certified #organic root beer. #zerocalorie #food","marker-color":"#cd9455","marker-size":"small","marker-symbol":"circle","image":"http:\/\/\/farm9.staticflickr.com\/8507\/8586998512_008fd716d5_q.jpg","url":"http:\/\/\/farm9.staticflickr.com\/8507\/8586998512_008fd716d5.jpg"}},{"type":"Feature","geometry":{"type":"Point","coordinates":[-73.999459,40.743906]},"properties":{"title":"Organic Avenue","marker-color":"#cd9455","marker-size":"small","marker-symbol":"circle","image":"http:\/\/\/farm9.staticflickr.com\/8089\/8522707700_b864cf967b_q.jpg","url":"http:\/\/\/farm9.staticflickr.com\/8089\/8522707700_b864cf967b.jpg"}},{"type":"Feature","geometry":{"type":"Point","coordinates":[-73.999334,40.744]},"properties":{"title":"Juices at Organic Avenue","marker-color":"#cd9455","marker-size":"small","marker-symbol":"circle","image":"http:\/\/\/farm9.staticflickr.com\/8530\/8521608093_459cb8cfff_q.jpg","url":"http:\/\/\/farm9.staticflickr.com\/8530\/8521608093_459cb8cfff.jpg"}},{"type":"Feature","geometry":{"type":"Point","coordinates":[-73.981333,40.720667]},"properties":{"title":"Arugula Salad with Strawberries","marker-color":"#cd9455","marker-size":"small","marker-symbol":"circle","image":"http:\/\/\/farm8.staticflickr.com\/7219\/7355959238_4dd658b178_q.jpg","url":"http:\/\/\/farm8.staticflickr.com\/7219\/7355959238_4dd658b178.jpg"}},{"type":"Feature","geometry":{"type":"Point","coordinates":[-74.008323,40.735454]},"properties":{"title":"Palatschinken with Smoked Trout, Apples, Horseradish and Organic Herbs @ Walls\u00e9","marker-color":"#cd9455","marker-size":"small","marker-symbol":"circle","image":"http:\/\/\/farm1.staticflickr.com\/9\/15445456_458f0bdf11_q.jpg","url":"http:\/\/\/farm1.staticflickr.com\/9\/15445456_458f0bdf11.jpg"}},{"type":"Feature","geometry":{"type":"Point","coordinates":[-74.003729,40.717242]},"properties":{"title":"Organic Modernism \u2022 #furniture #soho #nyc \u2022","marker-color":"#cd9455","marker-size":"small","marker-symbol":"circle","image":"http:\/\/\/farm9.staticflickr.com\/8332\/8106645622_13a9768b9a_q.jpg","url":"http:\/\/\/farm9.staticflickr.com\/8332\/8106645622_13a9768b9a.jpg"}},{"type":"Feature","geometry":{"type":"Point","coordinates":[-73.978167,40.724]},"properties":{"title":"The E 6th Community Center CSA abandons its surplus on the curb Tuesday nights. Reliable organic freegan bounty.","marker-color":"#cd9455","marker-size":"small","marker-symbol":"circle","image":"http:\/\/\/farm7.staticflickr.com\/6168\/6145919945_a2b057b095_q.jpg","url":"http:\/\/\/farm7.staticflickr.com\/6168\/6145919945_a2b057b095.jpg"}},{"type":"Feature","geometry":{"type":"Point","coordinates":[-73.977361,40.726677]},"properties":{"title":"Enchilada Dolce @ Matilda","marker-color":"#cd9455","marker-size":"small","marker-symbol":"circle","image":"http:\/\/\/farm9.staticflickr.com\/8554\/8711989403_331b10e0f5_q.jpg","url":"http:\/\/\/farm9.staticflickr.com\/8554\/8711989403_331b10e0f5.jpg"}},{"type":"Feature","geometry":{"type":"Point","coordinates":[-73.978322,40.736086]},"properties":{"title":"Today's spoils of war... I conquered the Oval's organic farmers market yet again!","marker-color":"#cd9455","marker-size":"small","marker-symbol":"circle","image":"http:\/\/\/farm9.staticflickr.com\/8300\/7817273572_97aa293fd1_q.jpg","url":"http:\/\/\/farm9.staticflickr.com\/8300\/7817273572_97aa293fd1.jpg"}},{"type":"Feature","geometry":{"type":"Point","coordinates":[-73.978001,40.724]},"properties":{"title":"Phono cartridge upgrade reminds me of the messy, organic, high-touch beauty of analog electronics","marker-color":"#cd9455","marker-size":"small","marker-symbol":"circle","image":"http:\/\/\/farm8.staticflickr.com\/7278\/7032317263_3eb8650a1c_q.jpg","url":"http:\/\/\/farm8.staticflickr.com\/7278\/7032317263_3eb8650a1c.jpg"}},{"type":"Feature","geometry":{"type":"Point","coordinates":[-73.988142,40.745901]},"properties":{"title":"Happy to have a piece of PDX in NYC.","marker-color":"#cd9455","marker-size":"small","marker-symbol":"circle","image":"http:\/\/\/farm9.staticflickr.com\/8095\/8487573358_6bcac648fd_q.jpg","url":"http:\/\/\/farm9.staticflickr.com\/8095\/8487573358_6bcac648fd.jpg"}},{"type":"Feature","geometry":{"type":"Point","coordinates":[-74.010734,40.72726]},"properties":{"title":"","marker-color":"#cd9455","marker-size":"small","marker-symbol":"circle","image":"http:\/\/\/farm6.staticflickr.com\/5256\/5462982199_6f86f78ea2_q.jpg","url":"http:\/\/\/farm6.staticflickr.com\/5256\/5462982199_6f86f78ea2.jpg"}},{"type":"Feature","geometry":{"type":"Point","coordinates":[-74.008167,40.739333]},"properties":{"title":"hot dogs and organic soft serve","marker-color":"#cd9455","marker-size":"small","marker-symbol":"circle","image":"http:\/\/\/farm5.staticflickr.com\/4107\/4966336441_40a448dfcc_q.jpg","url":"http:\/\/\/farm5.staticflickr.com\/4107\/4966336441_40a448dfcc.jpg"}},{"type":"Feature","geometry":{"type":"Point","coordinates":[-73.982167,40.7165]},"properties":{"title":"Simple Green Salad with Potatoes","marker-color":"#cd9455","marker-size":"small","marker-symbol":"circle","image":"http:\/\/\/farm9.staticflickr.com\/8495\/8349588327_b40dc8e5af_q.jpg","url":"http:\/\/\/farm9.staticflickr.com\/8495\/8349588327_b40dc8e5af.jpg"}},{"type":"Feature","geometry":{"type":"Point","coordinates":[-73.982334,40.716333]},"properties":{"title":"Kale and Potatoes","marker-color":"#cd9455","marker-size":"small","marker-symbol":"circle","image":"http:\/\/\/farm9.staticflickr.com\/8045\/8354734294_dfd312c0eb_q.jpg","url":"http:\/\/\/farm9.staticflickr.com\/8045\/8354734294_dfd312c0eb.jpg"}},{"type":"Feature","geometry":{"type":"Point","coordinates":[-74.006,40.716833]},"properties":{"title":"Barismo: Michelle, Yirgacheffe, Ethiopia","marker-color":"#cd9455","marker-size":"small","marker-symbol":"circle","image":"http:\/\/\/farm6.staticflickr.com\/5281\/5234165546_ac618314b2_q.jpg","url":"http:\/\/\/farm6.staticflickr.com\/5281\/5234165546_ac618314b2.jpg"}},{"type":"Feature","geometry":{"type":"Point","coordinates":[-73.982588,40.715712]},"properties":{"title":"Organic Strawberries","marker-color":"#cd9455","marker-size":"small","marker-symbol":"circle","image":"http:\/\/\/farm5.staticflickr.com\/4043\/4674728557_9f44109930_q.jpg","url":"http:\/\/\/farm5.staticflickr.com\/4043\/4674728557_9f44109930.jpg"}},{"type":"Feature","geometry":{"type":"Point","coordinates":[-74.010034,40.719994]},"properties":{"title":"NYC - TriBeCa: Locanda Verde - Tripe alla Parmigiana","marker-color":"#cd9455","marker-size":"small","marker-symbol":"circle","image":"http:\/\/\/farm8.staticflickr.com\/7075\/7192343732_eb9e14f657_q.jpg","url":"http:\/\/\/farm8.staticflickr.com\/7075\/7192343732_eb9e14f657.jpg"}},{"type":"Feature","geometry":{"type":"Point","coordinates":[-74.010034,40.719994]},"properties":{"title":"NYC - TriBeCa: Locanda Verde - Tripe alla Parmigiana","marker-color":"#cd9455","marker-size":"small","marker-symbol":"circle","image":"http:\/\/\/farm8.staticflickr.com\/7240\/7192343534_c9f9019587_q.jpg","url":"http:\/\/\/farm8.staticflickr.com\/7240\/7192343534_c9f9019587.jpg"}},{"type":"Feature","geometry":{"type":"Point","coordinates":[-74.007438,40.743572]},"properties":{"title":"\"Reflecting Transformation\" at NO LONGER EMPTY, NYC, 7\/30\/09 - 4","marker-color":"#cd9455","marker-size":"small","marker-symbol":"circle","image":"http:\/\/\/farm4.staticflickr.com\/3454\/3800938505_990e973515_q.jpg","url":"http:\/\/\/farm4.staticflickr.com\/3454\/3800938505_990e973515.jpg"}},{"type":"Feature","geometry":{"type":"Point","coordinates":[-74.007438,40.743572]},"properties":{"title":"\"Reflecting Transformation\" at NO LONGER EMPTY, NYC, 7\/30\/09 - 3","marker-color":"#cd9455","marker-size":"small","marker-symbol":"circle","image":"http:\/\/\/farm4.staticflickr.com\/3424\/3801759224_44e8ea831d_q.jpg","url":"http:\/\/\/farm4.staticflickr.com\/3424\/3801759224_44e8ea831d.jpg"}},{"type":"Feature","geometry":{"type":"Point","coordinates":[-74.007438,40.743572]},"properties":{"title":"\"Reflecting Transformation\" at NO LONGER EMPTY, NYC, 7\/30\/09 - 2","marker-color":"#cd9455","marker-size":"small","marker-symbol":"circle","image":"http:\/\/\/farm4.staticflickr.com\/3469\/3800941001_a3a4274fee_q.jpg","url":"http:\/\/\/farm4.staticflickr.com\/3469\/3800941001_a3a4274fee.jpg"}},{"type":"Feature","geometry":{"type":"Point","coordinates":[-74.007438,40.743572]},"properties":{"title":"\"Reflecting Transformation\" at NO LONGER EMPTY, NYC, 7\/30 - 9\/26\/09 - Postcatd Front","marker-color":"#cd9455","marker-size":"small","marker-symbol":"circle","image":"http:\/\/\/farm4.staticflickr.com\/3584\/3800945029_a8224b80d9_q.jpg","url":"http:\/\/\/farm4.staticflickr.com\/3584\/3800945029_a8224b80d9.jpg"}},{"type":"Feature","geometry":{"type":"Point","coordinates":[-74.007438,40.743572]},"properties":{"title":"\"Reflecting Transformation\" at NO LONGER EMPTY, NYC, 7\/30 - 9\/26\/09 - Postcatd Back","marker-color":"#cd9455","marker-size":"small","marker-symbol":"circle","image":"http:\/\/\/farm4.staticflickr.com\/3579\/3801764746_b08e4c27b4_q.jpg","url":"http:\/\/\/farm4.staticflickr.com\/3579\/3801764746_b08e4c27b4.jpg"}},{"type":"Feature","geometry":{"type":"Point","coordinates":[-74.007438,40.743572]},"properties":{"title":"\"Reflecting Transformation\" at NO LONGER EMPTY, NYC, 7\/30\/09 - 1","marker-color":"#cd9455","marker-size":"small","marker-symbol":"circle","image":"http:\/\/\/farm4.staticflickr.com\/3635\/3800942357_503aa209f6_q.jpg","url":"http:\/\/\/farm4.staticflickr.com\/3635\/3800942357_503aa209f6.jpg"}},{"type":"Feature","geometry":{"type":"Point","coordinates":[-74.007438,40.743572]},"properties":{"title":"\"Reflecting Transformation\" at NO LONGER EMPTY, NYC, 7\/30\/09 - 5","marker-color":"#cd9455","marker-size":"small","marker-symbol":"circle","image":"http:\/\/\/farm3.staticflickr.com\/2561\/3800937129_e721893e09_q.jpg","url":"http:\/\/\/farm3.staticflickr.com\/2561\/3800937129_e721893e09.jpg"}},{"type":"Feature","geometry":{"type":"Point","coordinates":[-74.007438,40.743572]},"properties":{"title":"\"Reflecting Transformation\" at NO LONGER EMPTY, NYC, 7\/30\/09 - 7","marker-color":"#cd9455","marker-size":"small","marker-symbol":"circle","image":"http:\/\/\/farm4.staticflickr.com\/3548\/3800934249_7dd9c43a5c_q.jpg","url":"http:\/\/\/farm4.staticflickr.com\/3548\/3800934249_7dd9c43a5c.jpg"}},{"type":"Feature","geometry":{"type":"Point","coordinates":[-74.007438,40.743572]},"properties":{"title":"\"Reflecting Transformation\" at NO LONGER EMPTY, NYC, 7\/30\/09 - 6","marker-color":"#cd9455","marker-size":"small","marker-symbol":"circle","image":"http:\/\/\/farm3.staticflickr.com\/2426\/3801755334_257a033f39_q.jpg","url":"http:\/\/\/farm3.staticflickr.com\/2426\/3801755334_257a033f39.jpg"}},{"type":"Feature","geometry":{"type":"Point","coordinates":[-74.008611,40.716538]},"properties":{"title":"Another Dessert","marker-color":"#cd9455","marker-size":"small","marker-symbol":"circle","image":"http:\/\/\/farm1.staticflickr.com\/1\/902616_8514e8b35c_q.jpg","url":"http:\/\/\/farm1.staticflickr.com\/1\/902616_8514e8b35c.jpg"}},