{"type":"FeatureCollection","features":[{"type":"Feature","geometry":{"type":"Point","coordinates":[-74.003176,40.733555]},"properties":{"title":"","marker-color":"#6e634b","marker-size":"small","marker-symbol":"circle-stroked","image":"http:\/\/\/farm7.staticflickr.com\/6039\/5914612488_6932bc9920_q.jpg","url":"http:\/\/\/farm7.staticflickr.com\/6039\/5914612488_6932bc9920.jpg"}},{"type":"Feature","geometry":{"type":"Point","coordinates":[-73.988285,40.720622]},"properties":{"title":"This is gone now, taken away after a few hours","marker-color":"#6e634b","marker-size":"small","marker-symbol":"circle-stroked","image":"http:\/\/\/farm2.staticflickr.com\/1406\/1397176018_be9a71f208_q.jpg","url":"http:\/\/\/farm2.staticflickr.com\/1406\/1397176018_be9a71f208.jpg"}},{"type":"Feature","geometry":{"type":"Point","coordinates":[-74.006899,40.71809]},"properties":{"title":"Heather leaning back","marker-color":"#6e634b","marker-size":"small","marker-symbol":"circle-stroked","image":"http:\/\/\/farm1.staticflickr.com\/33\/92233697_cfc86e4c26_q.jpg","url":"http:\/\/\/farm1.staticflickr.com\/33\/92233697_cfc86e4c26.jpg"}},{"type":"Feature","geometry":{"type":"Point","coordinates":[-73.958709,40.71347]},"properties":{"title":"Hidden People, 2\/23\/08, Trash Bar, Brooklyn, NY","marker-color":"#6e634b","marker-size":"small","marker-symbol":"circle-stroked","image":"http:\/\/\/farm3.staticflickr.com\/2360\/2293479933_bd13b928cb_q.jpg","url":"http:\/\/\/farm3.staticflickr.com\/2360\/2293479933_bd13b928cb.jpg"}},{"type":"Feature","geometry":{"type":"Point","coordinates":[-73.982055,40.767665]},"properties":{"title":"IWalked New York City's Museum of Arts and Design","marker-color":"#6e634b","marker-size":"small","marker-symbol":"circle-stroked","image":"http:\/\/\/farm9.staticflickr.com\/8079\/8350199357_e219411962_q.jpg","url":"http:\/\/\/farm9.staticflickr.com\/8079\/8350199357_e219411962.jpg"}},{"type":"Feature","geometry":{"type":"Point","coordinates":[-73.994261,40.680955]},"properties":{"title":"NYC - Brooklyn - Carroll Gardens - Gowanus Yacht Club-3","marker-color":"#6e634b","marker-size":"small","marker-symbol":"circle-stroked","image":"http:\/\/\/farm2.staticflickr.com\/1156\/824149443_75a5edd5e2_q.jpg","url":"http:\/\/\/farm2.staticflickr.com\/1156\/824149443_75a5edd5e2.jpg"}},{"type":"Feature","geometry":{"type":"Point","coordinates":[-73.994261,40.680955]},"properties":{"title":"NYC - Brooklyn - Carroll Gardens - Gowanus Yacht Club Rules","marker-color":"#6e634b","marker-size":"small","marker-symbol":"circle-stroked","image":"http:\/\/\/farm2.staticflickr.com\/1109\/824145671_b6bd0a0fc0_q.jpg","url":"http:\/\/\/farm2.staticflickr.com\/1109\/824145671_b6bd0a0fc0.jpg"}},{"type":"Feature","geometry":{"type":"Point","coordinates":[-73.994261,40.680955]},"properties":{"title":"NYC - Brooklyn - Carroll Gardens - Gowanus Yacht Club - Pabst Blue Ribbon","marker-color":"#6e634b","marker-size":"small","marker-symbol":"circle-stroked","image":"http:\/\/\/farm2.staticflickr.com\/1047\/825016180_06203c24fd_q.jpg","url":"http:\/\/\/farm2.staticflickr.com\/1047\/825016180_06203c24fd.jpg"}},{"type":"Feature","geometry":{"type":"Point","coordinates":[-73.994261,40.680955]},"properties":{"title":"NYC - Brooklyn - Carroll Gardens: Gowanus Yacht Club","marker-color":"#6e634b","marker-size":"small","marker-symbol":"circle-stroked","image":"http:\/\/\/farm2.staticflickr.com\/1082\/825014836_e0c42667f7_q.jpg","url":"http:\/\/\/farm2.staticflickr.com\/1082\/825014836_e0c42667f7.jpg"}},{"type":"Feature","geometry":{"type":"Point","coordinates":[-73.994261,40.680955]},"properties":{"title":"NYC - Brooklyn - Carroll Gardens: Gowanus Yacht Club","marker-color":"#6e634b","marker-size":"small","marker-symbol":"circle-stroked","image":"http:\/\/\/farm2.staticflickr.com\/1095\/825020242_e72dea36e5_q.jpg","url":"http:\/\/\/farm2.staticflickr.com\/1095\/825020242_e72dea36e5.jpg"}},{"type":"Feature","geometry":{"type":"Point","coordinates":[-73.988248,40.735428]},"properties":{"title":"Pabst Blue Ribbon","marker-color":"#6e634b","marker-size":"small","marker-symbol":"circle-stroked","image":"http:\/\/\/farm5.staticflickr.com\/4114\/4867292511_aec10357c7_q.jpg","url":"http:\/\/\/farm5.staticflickr.com\/4114\/4867292511_aec10357c7.jpg"}},{"type":"Feature","geometry":{"type":"Point","coordinates":[-74.000349,40.735445]},"properties":{"title":"Pabst Blue Ribbon Truck","marker-color":"#6e634b","marker-size":"small","marker-symbol":"circle-stroked","image":"http:\/\/\/farm4.staticflickr.com\/3409\/3645060604_895ee73216_q.jpg","url":"http:\/\/\/farm4.staticflickr.com\/3409\/3645060604_895ee73216.jpg"}},{"type":"Feature","geometry":{"type":"Point","coordinates":[-74.002713,40.733632]},"properties":{"title":"May 30th, 2010 (IV)","marker-color":"#6e634b","marker-size":"small","marker-symbol":"circle-stroked","image":"http:\/\/\/farm5.staticflickr.com\/4049\/4655365258_d90e6ae202_q.jpg","url":"http:\/\/\/farm5.staticflickr.com\/4049\/4655365258_d90e6ae202.jpg"}},{"type":"Feature","geometry":{"type":"Point","coordinates":[-74.003444,40.731809]},"properties":{"title":"Oysters and Beer","marker-color":"#6e634b","marker-size":"small","marker-symbol":"circle-stroked","image":"http:\/\/\/farm3.staticflickr.com\/2603\/4125398628_79490993f8_q.jpg","url":"http:\/\/\/farm3.staticflickr.com\/2603\/4125398628_79490993f8.jpg"}},{"type":"Feature","geometry":{"type":"Point","coordinates":[-73.998842,40.738965]},"properties":{"title":"PBR - NYC","marker-color":"#6e634b","marker-size":"small","marker-symbol":"circle-stroked","image":"http:\/\/\/farm9.staticflickr.com\/8457\/8048282864_577bdd4517_q.jpg","url":"http:\/\/\/farm9.staticflickr.com\/8457\/8048282864_577bdd4517.jpg"}},{"type":"Feature","geometry":{"type":"Point","coordinates":[-73.988464,40.719875]},"properties":{"title":"Liver Deficient","marker-color":"#6e634b","marker-size":"small","marker-symbol":"circle-stroked","image":"http:\/\/\/farm6.staticflickr.com\/5166\/5305624678_8f4042b3c5_q.jpg","url":"http:\/\/\/farm6.staticflickr.com\/5166\/5305624678_8f4042b3c5.jpg"}},{"type":"Feature","geometry":{"type":"Point","coordinates":[-73.982775,40.727103]},"properties":{"title":"Trying to reach God. Or something.","marker-color":"#6e634b","marker-size":"small","marker-symbol":"circle-stroked","image":"http:\/\/\/farm1.staticflickr.com\/101\/276986599_136fbfcc07_q.jpg","url":"http:\/\/\/farm1.staticflickr.com\/101\/276986599_136fbfcc07.jpg"}},{"type":"Feature","geometry":{"type":"Point","coordinates":[-73.982775,40.727103]},"properties":{"title":"IMG_1258.JPG","marker-color":"#6e634b","marker-size":"small","marker-symbol":"circle-stroked","image":"http:\/\/\/farm1.staticflickr.com\/104\/276985723_67d4df92b1_q.jpg","url":"http:\/\/\/farm1.staticflickr.com\/104\/276985723_67d4df92b1.jpg"}},{"type":"Feature","geometry":{"type":"Point","coordinates":[-73.982775,40.727103]},"properties":{"title":"IMG_1221.JPG","marker-color":"#6e634b","marker-size":"small","marker-symbol":"circle-stroked","image":"http:\/\/\/farm1.staticflickr.com\/110\/276282369_666e40294d_q.jpg","url":"http:\/\/\/farm1.staticflickr.com\/110\/276282369_666e40294d.jpg"}},{"type":"Feature","geometry":{"type":"Point","coordinates":[-73.982775,40.727103]},"properties":{"title":"IMG_1197.JPG","marker-color":"#6e634b","marker-size":"small","marker-symbol":"circle-stroked","image":"http:\/\/\/farm1.staticflickr.com\/121\/276272546_5aeaa5be8a_q.jpg","url":"http:\/\/\/farm1.staticflickr.com\/121\/276272546_5aeaa5be8a.jpg"}},{"type":"Feature","geometry":{"type":"Point","coordinates":[-73.982775,40.727103]},"properties":{"title":"IMG_1181.JPG","marker-color":"#6e634b","marker-size":"small","marker-symbol":"circle-stroked","image":"http:\/\/\/farm1.staticflickr.com\/110\/276259216_b7ea3fa084_q.jpg","url":"http:\/\/\/farm1.staticflickr.com\/110\/276259216_b7ea3fa084.jpg"}},{"type":"Feature","geometry":{"type":"Point","coordinates":[-73.982775,40.727103]},"properties":{"title":"IMG_1245.JPG","marker-color":"#6e634b","marker-size":"small","marker-symbol":"circle-stroked","image":"http:\/\/\/farm1.staticflickr.com\/115\/276982521_c07384653f_q.jpg","url":"http:\/\/\/farm1.staticflickr.com\/115\/276982521_c07384653f.jpg"}},{"type":"Feature","geometry":{"type":"Point","coordinates":[-73.982775,40.727103]},"properties":{"title":"IMG_1182.JPG","marker-color":"#6e634b","marker-size":"small","marker-symbol":"circle-stroked","image":"http:\/\/\/farm1.staticflickr.com\/96\/276259546_ba8bdc667e_q.jpg","url":"http:\/\/\/farm1.staticflickr.com\/96\/276259546_ba8bdc667e.jpg"}},{"type":"Feature","geometry":{"type":"Point","coordinates":[-73.982775,40.727103]},"properties":{"title":"IMG_1187.JPG","marker-color":"#6e634b","marker-size":"small","marker-symbol":"circle-stroked","image":"http:\/\/\/farm1.staticflickr.com\/103\/276270626_099954e763_q.jpg","url":"http:\/\/\/farm1.staticflickr.com\/103\/276270626_099954e763.jpg"}},{"type":"Feature","geometry":{"type":"Point","coordinates":[-73.982775,40.727103]},"properties":{"title":"IMG_1218.JPG","marker-color":"#6e634b","marker-size":"small","marker-symbol":"circle-stroked","image":"http:\/\/\/farm1.staticflickr.com\/56\/276280261_81af5d08aa_q.jpg","url":"http:\/\/\/farm1.staticflickr.com\/56\/276280261_81af5d08aa.jpg"}},{"type":"Feature","geometry":{"type":"Point","coordinates":[-73.982775,40.727103]},"properties":{"title":"IMG_1217.JPG","marker-color":"#6e634b","marker-size":"small","marker-symbol":"circle-stroked","image":"http:\/\/\/farm1.staticflickr.com\/115\/276279249_3bfd64c19a_q.jpg","url":"http:\/\/\/farm1.staticflickr.com\/115\/276279249_3bfd64c19a.jpg"}},{"type":"Feature","geometry":{"type":"Point","coordinates":[-73.982775,40.727103]},"properties":{"title":"IMG_1195.JPG","marker-color":"#6e634b","marker-size":"small","marker-symbol":"circle-stroked","image":"http:\/\/\/farm1.staticflickr.com\/95\/276271558_da86f6f960_q.jpg","url":"http:\/\/\/farm1.staticflickr.com\/95\/276271558_da86f6f960.jpg"}},{"type":"Feature","geometry":{"type":"Point","coordinates":[-73.982775,40.727103]},"properties":{"title":"IMG_1219.JPG","marker-color":"#6e634b","marker-size":"small","marker-symbol":"circle-stroked","image":"http:\/\/\/farm1.staticflickr.com\/80\/276281216_15f1c1a1b0_q.jpg","url":"http:\/\/\/farm1.staticflickr.com\/80\/276281216_15f1c1a1b0.jpg"}},{"type":"Feature","geometry":{"type":"Point","coordinates":[-73.988757,40.719599]},"properties":{"title":"Pabst & Galaga","marker-color":"#6e634b","marker-size":"small","marker-symbol":"circle-stroked","image":"http:\/\/\/farm5.staticflickr.com\/4090\/5061202820_c15e8c7008_q.jpg","url":"http:\/\/\/farm5.staticflickr.com\/4090\/5061202820_c15e8c7008.jpg"}},{"type":"Feature","geometry":{"type":"Point","coordinates":[-73.986777,40.719485]},"properties":{"title":"found objects","marker-color":"#6e634b","marker-size":"small","marker-symbol":"circle-stroked","image":"http:\/\/\/farm4.staticflickr.com\/3017\/2643231933_f01b5e1221_q.jpg","url":"http:\/\/\/farm4.staticflickr.com\/3017\/2643231933_f01b5e1221.jpg"}},{"type":"Feature","geometry":{"type":"Point","coordinates":[-73.999664,40.718498]},"properties":{"title":"Pabst Blue Rat? #faultyadvertising","marker-color":"#6e634b","marker-size":"small","marker-symbol":"circle-stroked","image":"http:\/\/\/farm9.staticflickr.com\/8201\/8196095228_6660625d2a_q.jpg","url":"http:\/\/\/farm9.staticflickr.com\/8201\/8196095228_6660625d2a.jpg"}},{"type":"Feature","geometry":{"type":"Point","coordinates":[-73.9799,40.725896]},"properties":{"title":"9:03 pm, Tuesday, Home","marker-color":"#6e634b","marker-size":"small","marker-symbol":"circle-stroked","image":"http:\/\/\/farm1.staticflickr.com\/12\/15924477_cfa382c5be_q.jpg","url":"http:\/\/\/farm1.staticflickr.com\/12\/15924477_cfa382c5be.jpg"}},{"type":"Feature","geometry":{"type":"Point","coordinates":[-73.997973,40.745033]},"properties":{"title":"Lounge Grill","marker-color":"#6e634b","marker-size":"small","marker-symbol":"circle-stroked","image":"http:\/\/\/farm8.staticflickr.com\/7028\/6836490849_841a73e5dc_q.jpg","url":"http:\/\/\/farm8.staticflickr.com\/7028\/6836490849_841a73e5dc.jpg"}},{"type":"Feature","geometry":{"type":"Point","coordinates":[-73.981804,40.743574]},"properties":{"title":"Pabst","marker-color":"#6e634b","marker-size":"small","marker-symbol":"circle-stroked","image":"http:\/\/\/farm8.staticflickr.com\/7051\/6884526779_271ed6b238_q.jpg","url":"http:\/\/\/farm8.staticflickr.com\/7051\/6884526779_271ed6b238.jpg"}},{"type":"Feature","geometry":{"type":"Point","coordinates":[-73.964552,40.710853]},"properties":{"title":"pandemic15","marker-color":"#6e634b","marker-size":"small","marker-symbol":"circle-stroked","image":"http:\/\/\/farm7.staticflickr.com\/6225\/6249997268_f5d2450d0a_q.jpg","url":"http:\/\/\/farm7.staticflickr.com\/6225\/6249997268_f5d2450d0a.jpg"}},{"type":"Feature","geometry":{"type":"Point","coordinates":[-73.964552,40.710853]},"properties":{"title":"pandemic11","marker-color":"#6e634b","marker-size":"small","marker-symbol":"circle-stroked","image":"http:\/\/\/farm7.staticflickr.com\/6230\/6249977034_91a004b6ba_q.jpg","url":"http:\/\/\/farm7.staticflickr.com\/6230\/6249977034_91a004b6ba.jpg"}},{"type":"Feature","geometry":{"type":"Point","coordinates":[-73.957986,40.722591]},"properties":{"title":"My Kind of Dexterity","marker-color":"#6e634b","marker-size":"small","marker-symbol":"circle-stroked","image":"http:\/\/\/farm9.staticflickr.com\/8176\/8021661120_148322c8ec_q.jpg","url":"http:\/\/\/farm9.staticflickr.com\/8176\/8021661120_148322c8ec.jpg"}},{"type":"Feature","geometry":{"type":"Point","coordinates":[-73.957686,40.722494]},"properties":{"title":"Balancing PBR","marker-color":"#6e634b","marker-size":"small","marker-symbol":"circle-stroked","image":"http:\/\/\/farm7.staticflickr.com\/6193\/6065916012_1cbd64db3d_q.jpg","url":"http:\/\/\/farm7.staticflickr.com\/6193\/6065916012_1cbd64db3d.jpg"}},{"type":"Feature","geometry":{"type":"Point","coordinates":[-73.958709,40.71347]},"properties":{"title":"Hidden People, 2\/23\/08, Trash Bar, Brooklyn, NY","marker-color":"#6e634b","marker-size":"small","marker-symbol":"circle-stroked","image":"http:\/\/\/farm4.staticflickr.com\/3115\/2293479667_663d8f6b06_q.jpg","url":"http:\/\/\/farm4.staticflickr.com\/3115\/2293479667_663d8f6b06.jpg"}},{"type":"Feature","geometry":{"type":"Point","coordinates":[-73.958709,40.71347]},"properties":{"title":"Hidden People, 2\/23\/08, Trash Bar, Brooklyn, NY","marker-color":"#6e634b","marker-size":"small","marker-symbol":"circle-stroked","image":"http:\/\/\/farm3.staticflickr.com\/2337\/2293480131_d7416b7a6c_q.jpg","url":"http:\/\/\/farm3.staticflickr.com\/2337\/2293480131_d7416b7a6c.jpg"}},{"type":"Feature","geometry":{"type":"Point","coordinates":[-73.9565,40.716666]},"properties":{"title":"Pabst Blue Ribbon","marker-color":"#6e634b","marker-size":"small","marker-symbol":"circle-stroked","image":"http:\/\/\/farm6.staticflickr.com\/5103\/5566469920_46ca85a6e3_q.jpg","url":"http:\/\/\/farm6.staticflickr.com\/5103\/5566469920_46ca85a6e3.jpg"}},{"type":"Feature","geometry":{"type":"Point","coordinates":[-73.956802,40.712516]},"properties":{"title":"Great beer shelf","marker-color":"#6e634b","marker-size":"small","marker-symbol":"circle-stroked","image":"http:\/\/\/farm2.staticflickr.com\/1308\/4696882176_2afcd50d89_q.jpg","url":"http:\/\/\/farm2.staticflickr.com\/1308\/4696882176_2afcd50d89.jpg"}},{"type":"Feature","geometry":{"type":"Point","coordinates":[-74.035955,40.747297]},"properties":{"title":"PBR","marker-color":"#6e634b","marker-size":"small","marker-symbol":"circle-stroked","image":"http:\/\/\/farm8.staticflickr.com\/7247\/7842672950_24e18606c9_q.jpg","url":"http:\/\/\/farm8.staticflickr.com\/7247\/7842672950_24e18606c9.jpg"}},{"type":"Feature","geometry":{"type":"Point","coordinates":[-74.002522,40.684185]},"properties":{"title":"PBR","marker-color":"#6e634b","marker-size":"small","marker-symbol":"circle-stroked","image":"http:\/\/\/farm1.staticflickr.com\/23\/37603454_e2bb58ed56_q.jpg","url":"http:\/\/\/farm1.staticflickr.com\/23\/37603454_e2bb58ed56.jpg"}},{"type":"Feature","geometry":{"type":"Point","coordinates":[-74.002522,40.684185]},"properties":{"title":"PBR","marker-color":"#6e634b","marker-size":"small","marker-symbol":"circle-stroked","image":"http:\/\/\/farm1.staticflickr.com\/26\/37604118_1362b95528_q.jpg","url":"http:\/\/\/farm1.staticflickr.com\/26\/37604118_1362b95528.jpg"}},{"type":"Feature","geometry":{"type":"Point","coordinates":[-73.949311,40.714049]},"properties":{"title":"Pabst Blue Ribbon. #hipsterheaven","marker-color":"#6e634b","marker-size":"small","marker-symbol":"circle-stroked","image":"http:\/\/\/farm9.staticflickr.com\/8381\/8619348538_f9db899836_q.jpg","url":"http:\/\/\/farm9.staticflickr.com\/8381\/8619348538_f9db899836.jpg"}},{"type":"Feature","geometry":{"type":"Point","coordinates":[-73.994261,40.680955]},"properties":{"title":"NYC - Brooklyn - Carroll Gardens - Gowanus Yacht Club - Police board","marker-color":"#6e634b","marker-size":"small","marker-symbol":"circle-stroked","image":"http:\/\/\/farm2.staticflickr.com\/1032\/824144235_e22ecf4f12_q.jpg","url":"http:\/\/\/farm2.staticflickr.com\/1032\/824144235_e22ecf4f12.jpg"}},{"type":"Feature","geometry":{"type":"Point","coordinates":[-73.949036,40.749813]},"properties":{"title":"The Happy Bride","marker-color":"#6e634b","marker-size":"small","marker-symbol":"circle-stroked","image":"http:\/\/\/farm7.staticflickr.com\/6166\/6171472980_2d322076d8_q.jpg","url":"http:\/\/\/farm7.staticflickr.com\/6166\/6171472980_2d322076d8.jpg"}},{"type":"Feature","geometry":{"type":"Point","coordinates":[-73.947853,40.708343]},"properties":{"title":"DSCF0012.JPG","marker-color":"#6e634b","marker-size":"small","marker-symbol":"circle-stroked","image":"http:\/\/\/farm1.staticflickr.com\/168\/468109178_71399d7691_q.jpg","url":"http:\/\/\/farm1.staticflickr.com\/168\/468109178_71399d7691.jpg"}},{"type":"Feature","geometry":{"type":"Point","coordinates":[-73.947853,40.708343]},"properties":{"title":"DSCF0003.JPG","marker-color":"#6e634b","marker-size":"small","marker-symbol":"circle-stroked","image":"http:\/\/\/farm1.staticflickr.com\/223\/468108806_a132512609_q.jpg","url":"http:\/\/\/farm1.staticflickr.com\/223\/468108806_a132512609.jpg"}},{"type":"Feature","geometry":{"type":"Point","coordinates":[-73.947853,40.708343]},"properties":{"title":"DSCF0014.JPG","marker-color":"#6e634b","marker-size":"small","marker-symbol":"circle-stroked","image":"http:\/\/\/farm1.staticflickr.com\/212\/468120441_7378b9204d_q.jpg","url":"http:\/\/\/farm1.staticflickr.com\/212\/468120441_7378b9204d.jpg"}},{"type":"Feature","geometry":{"type":"Point","coordinates":[-73.947853,40.708343]},"properties":{"title":"DSCF0011.JPG","marker-color":"#6e634b","marker-size":"small","marker-symbol":"circle-stroked","image":"http:\/\/\/farm1.staticflickr.com\/188\/468109128_769977b076_q.jpg","url":"http:\/\/\/farm1.staticflickr.com\/188\/468109128_769977b076.jpg"}},{"type":"Feature","geometry":{"type":"Point","coordinates":[-73.947853,40.708343]},"properties":{"title":"DSCF0010.JPG","marker-color":"#6e634b","marker-size":"small","marker-symbol":"circle-stroked","image":"http:\/\/\/farm1.staticflickr.com\/185\/468109072_def6a4cedd_q.jpg","url":"http:\/\/\/farm1.staticflickr.com\/185\/468109072_def6a4cedd.jpg"}},{"type":"Feature","geometry":{"type":"Point","coordinates":[-73.947853,40.708343]},"properties":{"title":"DSCF0002.JPG","marker-color":"#6e634b","marker-size":"small","marker-symbol":"circle-stroked","image":"http:\/\/\/farm1.staticflickr.com\/170\/468119903_daaf699b32_q.jpg","url":"http:\/\/\/farm1.staticflickr.com\/170\/468119903_daaf699b32.jpg"}},{"type":"Feature","geometry":{"type":"Point","coordinates":[-73.947853,40.708343]},"properties":{"title":"DSCF0007.JPG","marker-color":"#6e634b","marker-size":"small","marker-symbol":"circle-stroked","image":"http:\/\/\/farm1.staticflickr.com\/168\/468120117_e181e910c7_q.jpg","url":"http:\/\/\/farm1.staticflickr.com\/168\/468120117_e181e910c7.jpg"}},{"type":"Feature","geometry":{"type":"Point","coordinates":[-73.947853,40.708343]},"properties":{"title":"DSCF0016.JPG","marker-color":"#6e634b","marker-size":"small","marker-symbol":"circle-stroked","image":"http:\/\/\/farm1.staticflickr.com\/223\/468109302_db56de434e_q.jpg","url":"http:\/\/\/farm1.staticflickr.com\/223\/468109302_db56de434e.jpg"}},{"type":"Feature","geometry":{"type":"Point","coordinates":[-73.947853,40.708343]},"properties":{"title":"DSCF0006.JPG","marker-color":"#6e634b","marker-size":"small","marker-symbol":"circle-stroked","image":"http:\/\/\/farm1.staticflickr.com\/176\/468120081_f54bd86061_q.jpg","url":"http:\/\/\/farm1.staticflickr.com\/176\/468120081_f54bd86061.jpg"}},{"type":"Feature","geometry":{"type":"Point","coordinates":[-73.947853,40.708343]},"properties":{"title":"DSCF0015.JPG","marker-color":"#6e634b","marker-size":"small","marker-symbol":"circle-stroked","image":"http:\/\/\/farm1.staticflickr.com\/186\/468109262_f6c3a226c8_q.jpg","url":"http:\/\/\/farm1.staticflickr.com\/186\/468109262_f6c3a226c8.jpg"}},{"type":"Feature","geometry":{"type":"Point","coordinates":[-73.947853,40.708343]},"properties":{"title":"DSCF0009.JPG","marker-color":"#6e634b","marker-size":"small","marker-symbol":"circle-stroked","image":"http:\/\/\/farm1.staticflickr.com\/217\/468109048_e53a049d92_q.jpg","url":"http:\/\/\/farm1.staticflickr.com\/217\/468109048_e53a049d92.jpg"}},{"type":"Feature","geometry":{"type":"Point","coordinates":[-73.947853,40.708343]},"properties":{"title":"DSCF0005.JPG","marker-color":"#6e634b","marker-size":"small","marker-symbol":"circle-stroked","image":"http:\/\/\/farm1.staticflickr.com\/175\/468108884_697ff99673_q.jpg","url":"http:\/\/\/farm1.staticflickr.com\/175\/468108884_697ff99673.jpg"}},{"type":"Feature","geometry":{"type":"Point","coordinates":[-73.947853,40.708343]},"properties":{"title":"DSCF0004.JPG","marker-color":"#6e634b","marker-size":"small","marker-symbol":"circle-stroked","image":"http:\/\/\/farm1.staticflickr.com\/174\/468119999_a8869c0b25_q.jpg","url":"http:\/\/\/farm1.staticflickr.com\/174\/468119999_a8869c0b25.jpg"}},{"type":"Feature","geometry":{"type":"Point","coordinates":[-74.006438,40.679559]},"properties":{"title":"Burning Star Core + Zaimph","marker-color":"#6e634b","marker-size":"small","marker-symbol":"circle-stroked","image":"http:\/\/\/farm1.staticflickr.com\/215\/510323499_943583449d_q.jpg","url":"http:\/\/\/farm1.staticflickr.com\/215\/510323499_943583449d.jpg"}},{"type":"Feature","geometry":{"type":"Point","coordinates":[-73.961527,40.688623]},"properties":{"title":"09.05.08_0810","marker-color":"#6e634b","marker-size":"small","marker-symbol":"circle-stroked","image":"http:\/\/\/farm3.staticflickr.com\/2392\/3536895411_cc6609f80c_q.jpg","url":"http:\/\/\/farm3.staticflickr.com\/2392\/3536895411_cc6609f80c.jpg"}},{"type":"Feature","geometry":{"type":"Point","coordinates":[-73.9915,40.6735]},"properties":{"title":"Pabst keg makes @mattyule so happy. So so happy!","marker-color":"#6e634b","marker-size":"small","marker-symbol":"circle-stroked","image":"http:\/\/\/farm5.staticflickr.com\/4024\/4451703444_62e19ab791_q.jpg","url":"http:\/\/\/farm5.staticflickr.com\/4024\/4451703444_62e19ab791.jpg"}},{"type":"Feature","geometry":{"type":"Point","coordinates":[-73.963167,40.681167]},"properties":{"title":"PBR","marker-color":"#6e634b","marker-size":"small","marker-symbol":"circle-stroked","image":"http:\/\/\/farm3.staticflickr.com\/2637\/5843386899_ec8e2e7b98_q.jpg","url":"http:\/\/\/farm3.staticflickr.com\/2637\/5843386899_ec8e2e7b98.jpg"}},{"type":"Feature","geometry":{"type":"Point","coordinates":[-73.975002,40.675088]},"properties":{"title":"Happy New Pabst","marker-color":"#6e634b","marker-size":"small","marker-symbol":"circle-stroked","image":"http:\/\/\/farm6.staticflickr.com\/5162\/5344826323_3fa0ce1a8f_q.jpg","url":"http:\/\/\/farm6.staticflickr.com\/5162\/5344826323_3fa0ce1a8f.jpg"}},{"type":"Feature","geometry":{"type":"Point","coordinates":[-73.962455,40.779391]},"properties":{"title":"Cabinet","marker-color":"#6e634b","marker-size":"small","marker-symbol":"circle-stroked","image":"http:\/\/\/farm4.staticflickr.com\/3235\/3036766881_4842d9d89b_q.jpg","url":"http:\/\/\/farm4.staticflickr.com\/3235\/3036766881_4842d9d89b.jpg"}},{"type":"Feature","geometry":{"type":"Point","coordinates":[-73.962455,40.779391]},"properties":{"title":"Cabinet","marker-color":"#6e634b","marker-size":"small","marker-symbol":"circle-stroked","image":"http:\/\/\/farm4.staticflickr.com\/3188\/3037604636_c33198154d_q.jpg","url":"http:\/\/\/farm4.staticflickr.com\/3188\/3037604636_c33198154d.jpg"}},{"type":"Feature","geometry":{"type":"Point","coordinates":[-73.962455,40.779391]},"properties":{"title":"Cabinet","marker-color":"#6e634b","marker-size":"small","marker-symbol":"circle-stroked","image":"http:\/\/\/farm4.staticflickr.com\/3171\/3036763081_04601d17de_q.jpg","url":"http:\/\/\/farm4.staticflickr.com\/3171\/3036763081_04601d17de.jpg"}},{"type":"Feature","geometry":{"type":"Point","coordinates":[-73.962455,40.779391]},"properties":{"title":"Cabinet","marker-color":"#6e634b","marker-size":"small","marker-symbol":"circle-stroked","image":"http:\/\/\/farm4.staticflickr.com\/3176\/3036765803_d439e4abd6_q.jpg","url":"http:\/\/\/farm4.staticflickr.com\/3176\/3036765803_d439e4abd6.jpg"}},{"type":"Feature","geometry":{"type":"Point","coordinates":[-73.93044,40.694485]},"properties":{"title":"PABST BLUE RIBBON","marker-color":"#6e634b","marker-size":"small","marker-symbol":"circle-stroked","image":"http:\/\/\/farm9.staticflickr.com\/8501\/8286426226_d2a30156dd_q.jpg","url":"http:\/\/\/farm9.staticflickr.com\/8501\/8286426226_d2a30156dd.jpg"}},{"type":"Feature","geometry":{"type":"Point","coordinates":[-73.950487,40.80918]},"properties":{"title":"Pabst Harlem Restaurant, Harlem","marker-color":"#6e634b","marker-size":"small","marker-symbol":"circle-stroked","image":"http:\/\/\/farm4.staticflickr.com\/3311\/3237300255_f2e03d7cd5_q.jpg","url":"http:\/\/\/farm4.staticflickr.com\/3311\/3237300255_f2e03d7cd5.jpg"}},{"type":"Feature","geometry":{"type":"Point","coordinates":[-73.902657,40.693645]},"properties":{"title":"Pabst on Head","marker-color":"#6e634b","marker-size":"small","marker-symbol":"circle-stroked","image":"http:\/\/\/farm4.staticflickr.com\/3370\/3260219950_f2455abe9d_q.jpg","url":"http:\/\/\/farm4.staticflickr.com\/3370\/3260219950_f2455abe9d.jpg"}},{"type":"Feature","geometry":{"type":"Point","coordinates":[-73.892134,40.750071]},"properties":{"title":"PBR","marker-color":"#6e634b","marker-size":"small","marker-symbol":"circle-stroked","image":"http:\/\/\/farm5.staticflickr.com\/4087\/4978429728_96c3aa94dd_q.jpg","url":"http:\/\/\/farm5.staticflickr.com\/4087\/4978429728_96c3aa94dd.jpg"}},{"type":"Feature","geometry":{"type":"Point","coordinates":[-74.135078,40.625549]},"properties":{"title":"Beer","marker-color":"#6e634b","marker-size":"small","marker-symbol":"circle-stroked","image":"http:\/\/\/farm8.staticflickr.com\/7156\/6402183673_f56ed3c1b3_q.jpg","url":"http:\/\/\/farm8.staticflickr.com\/7156\/6402183673_f56ed3c1b3.jpg"}}]}